[
 {
   "PORT_IATA": "RUL",
   "PORT_NAME": "Maavarulu",
   "LAT_DEC": 0.33805,
   "LONG_DEC": 73.51277,
   "CITY_NAME": "Maavarulu"
 },
 {
   "PORT_IATA": "TFU",
   "PORT_NAME": "Tianfu International",
   "LAT_DEC": 30.31632,
   "LONG_DEC": 104.44266,
   "CITY_NAME": "Chengdu"
 },
 {
   "PORT_IATA": "CQW",
   "PORT_NAME": "Chongqing Xiannvshan",
   "LAT_DEC": 29.46416,
   "LONG_DEC": 107.69333,
   "CITY_NAME": "Wulong"
 },
 {
   "PORT_IATA": "YLX",
   "PORT_NAME": "Yulin",
   "LAT_DEC": 22.4327,
   "LONG_DEC": 110.11967,
   "CITY_NAME": "Yulin"
 },
 {
   "PORT_IATA": "JAE",
   "PORT_NAME": "Aeropuerto de Shumba",
   "LAT_DEC": -5.59361,
   "LONG_DEC": -78.77361,
   "CITY_NAME": "Jaen"
 },
 {
   "PORT_IATA": "CDT",
   "PORT_NAME": "Castellon",
   "LAT_DEC": 40.21391,
   "LONG_DEC": 0.07306,
   "CITY_NAME": "Castellon de la Plana"
 },
 {
   "PORT_IATA": "SXB",
   "PORT_NAME": "Strasbourg International",
   "LAT_DEC": 48.54194,
   "LONG_DEC": 7.63444,
   "CITY_NAME": "Strasbourg"
 },
 {
   "PORT_IATA": "HYD",
   "PORT_NAME": "Hyderabad Rajiv Gandhi Intl Arpt",
   "LAT_DEC": 17.23106,
   "LONG_DEC": 78.43125,
   "CITY_NAME": "Hyderabad"
 },
 {
   "PORT_IATA": "BPM",
   "PORT_NAME": "Hyderabad Begumpet Airport",
   "LAT_DEC": 17.4531,
   "LONG_DEC": 78.46349,
   "CITY_NAME": "Hyderabad"
 },
 {
   "PORT_IATA": "XER",
   "PORT_NAME": "Strasbourg Bus Station",
   "LAT_DEC": 48.58508,
   "LONG_DEC": 7.73544,
   "CITY_NAME": "Strasbourg Bus Station"
 },
 {
   "PORT_IATA": "TLS",
   "PORT_NAME": "Blagnac",
   "LAT_DEC": 43.63499,
   "LONG_DEC": 1.36777,
   "CITY_NAME": "Toulouse"
 },
 {
   "PORT_IATA": "AIS",
   "PORT_NAME": "Arorae",
   "LAT_DEC": -2.61631,
   "LONG_DEC": 176.8025,
   "CITY_NAME": "Arorae"
 },
 {
   "PORT_IATA": "BEZ",
   "PORT_NAME": "Beru",
   "LAT_DEC": -1.35444,
   "LONG_DEC": 176.0066,
   "CITY_NAME": "Beru"
 },
 {
   "PORT_IATA": "CEM",
   "PORT_NAME": "Central",
   "LAT_DEC": 65.57358,
   "LONG_DEC": -144.77904,
   "CITY_NAME": "Central"
 },
 {
   "PORT_IATA": "CIK",
   "PORT_NAME": "Chalkyitsik",
   "LAT_DEC": 66.64401,
   "LONG_DEC": -143.74261,
   "CITY_NAME": "Chalkyitsik"
 },
 {
   "PORT_IATA": "CLP",
   "PORT_NAME": "Clarks Point",
   "LAT_DEC": 58.83338,
   "LONG_DEC": -158.52942,
   "CITY_NAME": "Clarks Point"
 },
 {
   "PORT_IATA": "ELI",
   "PORT_NAME": "Elim",
   "LAT_DEC": 64.61539,
   "LONG_DEC": -162.27009,
   "CITY_NAME": "Elim"
 },
 {
   "PORT_IATA": "FFM",
   "PORT_NAME": "Fergus Falls Municipal",
   "LAT_DEC": 46.28333,
   "LONG_DEC": -96.16666,
   "CITY_NAME": "Fergus Falls"
 },
 {
   "PORT_IATA": "GLV",
   "PORT_NAME": "Golovin",
   "LAT_DEC": 64.548,
   "LONG_DEC": -163.01186,
   "CITY_NAME": "Golovin"
 },
 {
   "PORT_IATA": "HCR",
   "PORT_NAME": "Holy Cross",
   "LAT_DEC": 62.19022,
   "LONG_DEC": -159.77244,
   "CITY_NAME": "Holy Cross"
 },
 {
   "PORT_IATA": "HNH",
   "PORT_NAME": "Hoonah",
   "LAT_DEC": 58.09582,
   "LONG_DEC": -135.41273,
   "CITY_NAME": "Hoonah"
 },
 {
   "PORT_IATA": "KBC",
   "PORT_NAME": "Birch Creek",
   "LAT_DEC": 66.27212,
   "LONG_DEC": -145.81879,
   "CITY_NAME": "Birch Creek"
 },
 {
   "PORT_IATA": "KEO",
   "PORT_NAME": "Odienne",
   "LAT_DEC": 9.53874,
   "LONG_DEC": -7.56228,
   "CITY_NAME": "Odienne"
 },
 {
   "PORT_IATA": "KGX",
   "PORT_NAME": "Grayling",
   "LAT_DEC": 62.89764,
   "LONG_DEC": -160.06716,
   "CITY_NAME": "Grayling"
 },
 {
   "PORT_IATA": "KLL",
   "PORT_NAME": "Levelock",
   "LAT_DEC": 59.12604,
   "LONG_DEC": -156.8608,
   "CITY_NAME": "Levelock"
 },
 {
   "PORT_IATA": "KOT",
   "PORT_NAME": "Kotlik",
   "LAT_DEC": 63.03249,
   "LONG_DEC": -163.53032,
   "CITY_NAME": "Kotlik"
 },
 {
   "PORT_IATA": "KUC",
   "PORT_NAME": "Kuria",
   "LAT_DEC": 1.00376,
   "LONG_DEC": 173.03111,
   "CITY_NAME": "Kuria"
 },
 {
   "PORT_IATA": "KWT",
   "PORT_NAME": "Kwethluk",
   "LAT_DEC": 60.79336,
   "LONG_DEC": -161.44193,
   "CITY_NAME": "Kwethluk"
 },
 {
   "PORT_IATA": "MDI",
   "PORT_NAME": "Makurdi",
   "LAT_DEC": 7.71666,
   "LONG_DEC": 8.6,
   "CITY_NAME": "Makurdi"
 },
 {
   "PORT_IATA": "NGD",
   "PORT_NAME": "August George",
   "LAT_DEC": 18.73333,
   "LONG_DEC": -64.31666,
   "CITY_NAME": "Anegada"
 },
 {
   "PORT_IATA": "NIG",
   "PORT_NAME": "Nikunau",
   "LAT_DEC": -1.3143,
   "LONG_DEC": 176.41073,
   "CITY_NAME": "Nikunau"
 },
 {
   "PORT_IATA": "NNL",
   "PORT_NAME": "Nondalton",
   "LAT_DEC": 59.98029,
   "LONG_DEC": -154.839,
   "CITY_NAME": "Nondalton"
 },
 {
   "PORT_IATA": "OKE",
   "PORT_NAME": "Okierabu",
   "LAT_DEC": 27.43222,
   "LONG_DEC": 128.70575,
   "CITY_NAME": "Okierabu"
 },
 {
   "PORT_IATA": "OOT",
   "PORT_NAME": "Onotoa",
   "LAT_DEC": -1.79614,
   "LONG_DEC": 175.52589,
   "CITY_NAME": "Onotoa"
 },
 {
   "PORT_IATA": "SDX",
   "PORT_NAME": "Sedona",
   "LAT_DEC": 34.8493,
   "LONG_DEC": -111.78756,
   "CITY_NAME": "Sedona"
 },
 {
   "PORT_IATA": "TGI",
   "PORT_NAME": "Tingo Maria",
   "LAT_DEC": -9.28979,
   "LONG_DEC": -76.00511,
   "CITY_NAME": "Tingo Maria"
 },
 {
   "PORT_IATA": "VEE",
   "PORT_NAME": "Venetie",
   "LAT_DEC": 67.00632,
   "LONG_DEC": -146.37821,
   "CITY_NAME": "Venetie"
 },
 {
   "PORT_IATA": "WBB",
   "PORT_NAME": "Stebbins",
   "LAT_DEC": 63.51466,
   "LONG_DEC": -162.28397,
   "CITY_NAME": "Stebbins"
 },
 {
   "PORT_IATA": "WSN",
   "PORT_NAME": "South Naknek",
   "LAT_DEC": 58.70316,
   "LONG_DEC": -157.00658,
   "CITY_NAME": "South Naknek"
 },
 {
   "PORT_IATA": "TDW",
   "PORT_NAME": "Amarillo Tradewind Apt",
   "LAT_DEC": 35.23333,
   "LONG_DEC": -101.71666,
   "CITY_NAME": "Amarillo"
 },
 {
   "PORT_IATA": "AMA",
   "PORT_NAME": "Amarillo Rick Husband Intl Apt",
   "LAT_DEC": 35.21943,
   "LONG_DEC": -101.70583,
   "CITY_NAME": "Amarillo"
 },
 {
   "PORT_IATA": "ANK",
   "PORT_NAME": "Ankara Etimesgut Apt",
   "LAT_DEC": 39.95277,
   "LONG_DEC": 32.6861,
   "CITY_NAME": "Ankara"
 },
 {
   "PORT_IATA": "ESB",
   "PORT_NAME": "Ankara Esenboga Apt",
   "LAT_DEC": 40.12804,
   "LONG_DEC": 32.99499,
   "CITY_NAME": "Ankara"
 },
 {
   "PORT_IATA": "APW",
   "PORT_NAME": "Apia Faleolo Apt",
   "LAT_DEC": -13.82971,
   "LONG_DEC": -171.99721,
   "CITY_NAME": "Apia"
 },
 {
   "PORT_IATA": "BFS",
   "PORT_NAME": "Belfast International Apt",
   "LAT_DEC": 54.6575,
   "LONG_DEC": -6.21583,
   "CITY_NAME": "Belfast"
 },
 {
   "PORT_IATA": "BHD",
   "PORT_NAME": "Belfast George Best City Apt",
   "LAT_DEC": 54.61804,
   "LONG_DEC": -5.87249,
   "CITY_NAME": "Belfast"
 },
 {
   "PORT_IATA": "OTP",
   "PORT_NAME": "Bucharest Henri Coanda Apt",
   "LAT_DEC": 44.57221,
   "LONG_DEC": 26.10222,
   "CITY_NAME": "Bucharest"
 },
 {
   "PORT_IATA": "TZA",
   "PORT_NAME": "Belize City Municipal Apt",
   "LAT_DEC": 17.51617,
   "LONG_DEC": -88.1954,
   "CITY_NAME": "Belize City"
 },
 {
   "PORT_IATA": "BZE",
   "PORT_NAME": "Belize City Goldson Intl Apt",
   "LAT_DEC": 17.53916,
   "LONG_DEC": -88.30833,
   "CITY_NAME": "Belize City"
 },
 {
   "PORT_IATA": "CGF",
   "PORT_NAME": "Cleveland Cuyahoga County Apt",
   "LAT_DEC": 41.56656,
   "LONG_DEC": -81.48404,
   "CITY_NAME": "Cleveland"
 },
 {
   "PORT_IATA": "CLE",
   "PORT_NAME": "Cleveland Hopkins International Apt",
   "LAT_DEC": 41.41166,
   "LONG_DEC": -81.84971,
   "CITY_NAME": "Cleveland"
 },
 {
   "PORT_IATA": "BKL",
   "PORT_NAME": "Cleveland Burke Lakefront Apt",
   "LAT_DEC": 41.51749,
   "LONG_DEC": -81.68333,
   "CITY_NAME": "Cleveland"
 },
 {
   "PORT_IATA": "CMB",
   "PORT_NAME": "Bandaranaike Intl",
   "LAT_DEC": 7.18027,
   "LONG_DEC": 79.88527,
   "CITY_NAME": "Colombo"
 },
 {
   "PORT_IATA": "RML",
   "PORT_NAME": "Colombo Ratmalana Apt",
   "LAT_DEC": 6.8209,
   "LONG_DEC": 79.8854,
   "CITY_NAME": "Colombo"
 },
 {
   "PORT_IATA": "CPH",
   "PORT_NAME": "Copenhagen Kastrup Apt",
   "LAT_DEC": 55.62025,
   "LONG_DEC": 12.65003,
   "CITY_NAME": "Copenhagen"
 },
 {
   "PORT_IATA": "RKE",
   "PORT_NAME": "Copenhagen Roskilde Apt",
   "LAT_DEC": 55.58564,
   "LONG_DEC": 12.13139,
   "CITY_NAME": "Copenhagen"
 },
 {
   "PORT_IATA": "MGY",
   "PORT_NAME": "Dayton Wright Brothers Apt",
   "LAT_DEC": 39.58833,
   "LONG_DEC": -84.22499,
   "CITY_NAME": "Dayton"
 },
 {
   "PORT_IATA": "DAY",
   "PORT_NAME": "Dayton James M. Cox Intl Apt",
   "LAT_DEC": 39.9025,
   "LONG_DEC": -84.21943,
   "CITY_NAME": "Dayton"
 },
 {
   "PORT_IATA": "DOM",
   "PORT_NAME": "Dominica Melville Hall Apt",
   "LAT_DEC": 15.54694,
   "LONG_DEC": -61.3,
   "CITY_NAME": "Dominica"
 },
 {
   "PORT_IATA": "DRT",
   "PORT_NAME": "Del Rio International Apt",
   "LAT_DEC": 29.37324,
   "LONG_DEC": -100.92615,
   "CITY_NAME": "Del Rio"
 },
 {
   "PORT_IATA": "EYW",
   "PORT_NAME": "Key West International Apt",
   "LAT_DEC": 24.55611,
   "LONG_DEC": -81.75944,
   "CITY_NAME": "Key West"
 },
 {
   "PORT_IATA": "FCH",
   "PORT_NAME": "Fresno Chandler Executive Apt",
   "LAT_DEC": 36.73302,
   "LONG_DEC": -119.82031,
   "CITY_NAME": "Fresno"
 },
 {
   "PORT_IATA": "FAT",
   "PORT_NAME": "Fresno Yosemite International Airport",
   "LAT_DEC": 36.7761,
   "LONG_DEC": -119.71804,
   "CITY_NAME": "Fresno"
 },
 {
   "PORT_IATA": "FMY",
   "PORT_NAME": "Fort Myers Page Field",
   "LAT_DEC": 26.58333,
   "LONG_DEC": -81.86666,
   "CITY_NAME": "Fort Myers"
 },
 {
   "PORT_IATA": "RSW",
   "PORT_NAME": "Fort Myers SW Florida International Apt",
   "LAT_DEC": 26.5361,
   "LONG_DEC": -81.75527,
   "CITY_NAME": "Fort Myers"
 },
 {
   "PORT_IATA": "AYM",
   "PORT_NAME": "Abu Dhabi Yas Island SPB",
   "LAT_DEC": 24.4706,
   "LONG_DEC": 54.60958,
   "CITY_NAME": "Abu Dhabi Yas Island SPB"
 },
 {
   "PORT_IATA": "GST",
   "PORT_NAME": "Gustavus Airport",
   "LAT_DEC": 58.42527,
   "LONG_DEC": -135.7075,
   "CITY_NAME": "Gustavus"
 },
 {
   "PORT_IATA": "GTF",
   "PORT_NAME": "Great Falls International Apt",
   "LAT_DEC": 47.48193,
   "LONG_DEC": -111.37054,
   "CITY_NAME": "Great Falls"
 },
 {
   "PORT_IATA": "GUM",
   "PORT_NAME": "Guam Antonio B Won Pat International",
   "LAT_DEC": 13.48333,
   "LONG_DEC": 144.7961,
   "CITY_NAME": "Guam"
 },
 {
   "PORT_IATA": "KTN",
   "PORT_NAME": "Ketchikan International Apt",
   "LAT_DEC": 55.35555,
   "LONG_DEC": -131.71388,
   "CITY_NAME": "Ketchikan"
 },
 {
   "PORT_IATA": "LBB",
   "PORT_NAME": "Lubbock Preston Smith International Apt",
   "LAT_DEC": 33.66361,
   "LONG_DEC": -101.82277,
   "CITY_NAME": "Lubbock"
 },
 {
   "PORT_IATA": "XTI",
   "PORT_NAME": "Madrid Chamartin Rail Station",
   "LAT_DEC": 40.47388,
   "LONG_DEC": -3.6825,
   "CITY_NAME": "Madrid"
 },
 {
   "PORT_IATA": "MAD",
   "PORT_NAME": "Madrid Adolfo Suarez-Barajas Apt",
   "LAT_DEC": 40.4936,
   "LONG_DEC": -3.56666,
   "CITY_NAME": "Madrid"
 },
 {
   "PORT_IATA": "XOC",
   "PORT_NAME": "Madrid Atocha Rail Station",
   "LAT_DEC": 40.40583,
   "LONG_DEC": -3.69083,
   "CITY_NAME": "Madrid"
 },
 {
   "PORT_IATA": "MCE",
   "PORT_NAME": "Merced Regional Apt",
   "LAT_DEC": 37.28333,
   "LONG_DEC": -120.51666,
   "CITY_NAME": "Merced"
 },
 {
   "PORT_IATA": "BFM",
   "PORT_NAME": "Mobile Downtown Apt",
   "LAT_DEC": 30.63333,
   "LONG_DEC": -88.06666,
   "CITY_NAME": "Mobile"
 },
 {
   "PORT_IATA": "MOB",
   "PORT_NAME": "Mobile Regional Apt",
   "LAT_DEC": 30.6911,
   "LONG_DEC": -88.24277,
   "CITY_NAME": "Mobile"
 },
 {
   "PORT_IATA": "MRY",
   "PORT_NAME": "Monterey/Carmel Monterey Regional",
   "LAT_DEC": 36.58694,
   "LONG_DEC": -121.84305,
   "CITY_NAME": "Monterey/Carmel"
 },
 {
   "PORT_IATA": "CRE",
   "PORT_NAME": "Myrtle Beach Grand Strand Apt",
   "LAT_DEC": 33.81166,
   "LONG_DEC": -78.72388,
   "CITY_NAME": "Myrtle Beach"
 },
 {
   "PORT_IATA": "MYR",
   "PORT_NAME": "Myrtle Beach International",
   "LAT_DEC": 33.67971,
   "LONG_DEC": -78.92832,
   "CITY_NAME": "Myrtle Beach"
 },
 {
   "PORT_IATA": "NBO",
   "PORT_NAME": "Nairobi Jomo Kenyatta International Apt",
   "LAT_DEC": -1.31916,
   "LONG_DEC": 36.92777,
   "CITY_NAME": "Nairobi"
 },
 {
   "PORT_IATA": "WIL",
   "PORT_NAME": "Nairobi Wilson Apt",
   "LAT_DEC": -1.32166,
   "LONG_DEC": 36.81472,
   "CITY_NAME": "Nairobi"
 },
 {
   "PORT_IATA": "GEA",
   "PORT_NAME": "Noumea Magenta Apt",
   "LAT_DEC": -22.25833,
   "LONG_DEC": 166.47277,
   "CITY_NAME": "Noumea"
 },
 {
   "PORT_IATA": "NOU",
   "PORT_NAME": "La Tontouta",
   "LAT_DEC": -22.01444,
   "LONG_DEC": 166.21305,
   "CITY_NAME": "Noumea"
 },
 {
   "PORT_IATA": "MIQ",
   "PORT_NAME": "Omaha Millard Apt",
   "LAT_DEC": 41.3055,
   "LONG_DEC": -75.89455,
   "CITY_NAME": "Omaha"
 },
 {
   "PORT_IATA": "OMA",
   "PORT_NAME": "Omaha Eppley Airfield",
   "LAT_DEC": 41.30305,
   "LONG_DEC": -95.89416,
   "CITY_NAME": "Omaha"
 },
 {
   "PORT_IATA": "PBM",
   "PORT_NAME": "Paramaribo Johan A Pengel Intl Apt",
   "LAT_DEC": 5.45277,
   "LONG_DEC": -55.18777,
   "CITY_NAME": "Paramaribo"
 },
 {
   "PORT_IATA": "RIV",
   "PORT_NAME": "Riverside March JARB",
   "LAT_DEC": 33.88082,
   "LONG_DEC": -117.25944,
   "CITY_NAME": "Riverside"
 },
 {
   "PORT_IATA": "RAL",
   "PORT_NAME": "Riverside Municipal Apt",
   "LAT_DEC": 33.95,
   "LONG_DEC": -117.43333,
   "CITY_NAME": "Riverside"
 },
 {
   "PORT_IATA": "QRH",
   "PORT_NAME": "Rotterdam Centraal Rail Station",
   "LAT_DEC": 51.92395,
   "LONG_DEC": 4.47014,
   "CITY_NAME": "Rotterdam"
 },
 {
   "PORT_IATA": "RTM",
   "PORT_NAME": "Rotterdam Apt",
   "LAT_DEC": 51.95305,
   "LONG_DEC": 4.43061,
   "CITY_NAME": "Rotterdam"
 },
 {
   "PORT_IATA": "ALM",
   "PORT_NAME": "Alamogordo White Sands Rgnl",
   "LAT_DEC": 32.83999,
   "LONG_DEC": -105.99055,
   "CITY_NAME": "Alamogordo"
 },
 {
   "PORT_IATA": "SIN",
   "PORT_NAME": "Singapore Changi Apt",
   "LAT_DEC": 1.35916,
   "LONG_DEC": 103.98944,
   "CITY_NAME": "Singapore"
 },
 {
   "PORT_IATA": "XSP",
   "PORT_NAME": "Singapore Seletar Apt",
   "LAT_DEC": 1.41693,
   "LONG_DEC": 103.86777,
   "CITY_NAME": "Singapore"
 },
 {
   "PORT_IATA": "GEP",
   "PORT_NAME": "Genoa Brignole Railway Stn",
   "LAT_DEC": 11.40707,
   "LONG_DEC": 8.94725,
   "CITY_NAME": "Genoa Brignole Railway Stn"
 },
 {
   "PORT_IATA": "CTS",
   "PORT_NAME": "Sapporo New Chitose Apt",
   "LAT_DEC": 42.77527,
   "LONG_DEC": 141.69221,
   "CITY_NAME": "Sapporo"
 },
 {
   "PORT_IATA": "OKD",
   "PORT_NAME": "Sapporo Okadama Apt",
   "LAT_DEC": 43.11611,
   "LONG_DEC": 141.38027,
   "CITY_NAME": "Sapporo"
 },
 {
   "PORT_IATA": "TLV",
   "PORT_NAME": "Tel Aviv-Yafo Ben Gurion Intl Apt",
   "LAT_DEC": 32.00709,
   "LONG_DEC": 34.88044,
   "CITY_NAME": "Tel Aviv-Yafo"
 },
 {
   "PORT_IATA": "RVS",
   "PORT_NAME": "Tulsa Richard Lloyd Jones Junior Apt",
   "LAT_DEC": 36.15,
   "LONG_DEC": -95.96666,
   "CITY_NAME": "Tulsa"
 },
 {
   "PORT_IATA": "TUL",
   "PORT_NAME": "Tulsa International Apt",
   "LAT_DEC": 36.19833,
   "LONG_DEC": -95.88805,
   "CITY_NAME": "Tulsa"
 },
 {
   "PORT_IATA": "HND",
   "PORT_NAME": "Tokyo Intl (Haneda)",
   "LAT_DEC": 35.55222,
   "LONG_DEC": 139.77971,
   "CITY_NAME": "Tokyo"
 },
 {
   "PORT_IATA": "NRT",
   "PORT_NAME": "Tokyo Narita Intl",
   "LAT_DEC": 35.76472,
   "LONG_DEC": 140.38638,
   "CITY_NAME": "Tokyo"
 },
 {
   "PORT_IATA": "VLD",
   "PORT_NAME": "Valdosta Regional Apt",
   "LAT_DEC": 30.78249,
   "LONG_DEC": -83.27666,
   "CITY_NAME": "Valdosta"
 },
 {
   "PORT_IATA": "WDG",
   "PORT_NAME": "Enid Woodring Regional",
   "LAT_DEC": 36.37987,
   "LONG_DEC": -97.79097,
   "CITY_NAME": "Enid"
 },
 {
   "PORT_IATA": "ZNA",
   "PORT_NAME": "Nanaimo Harbour",
   "LAT_DEC": 49.1679,
   "LONG_DEC": -123.93067,
   "CITY_NAME": "Nanaimo"
 },
 {
   "PORT_IATA": "YCD",
   "PORT_NAME": "Nanaimo Cassidy Apt",
   "LAT_DEC": 49.05222,
   "LONG_DEC": -123.87027,
   "CITY_NAME": "Nanaimo"
 },
 {
   "PORT_IATA": "YKM",
   "PORT_NAME": "Yakima Air Terminal",
   "LAT_DEC": 46.56799,
   "LONG_DEC": -120.54064,
   "CITY_NAME": "Yakima"
 },
 {
   "PORT_IATA": "YUM",
   "PORT_NAME": "Yuma International Apt",
   "LAT_DEC": 32.65666,
   "LONG_DEC": -114.60611,
   "CITY_NAME": "Yuma"
 },
 {
   "PORT_IATA": "MNK",
   "PORT_NAME": "Maiana",
   "LAT_DEC": 1.00361,
   "LONG_DEC": 173.031,
   "CITY_NAME": "Maiana"
 },
 {
   "PORT_IATA": "MTK",
   "PORT_NAME": "Makin",
   "LAT_DEC": 3.37468,
   "LONG_DEC": 172.9923,
   "CITY_NAME": "Makin"
 },
 {
   "PORT_IATA": "OKR",
   "PORT_NAME": "Yorke Island",
   "LAT_DEC": -9.75257,
   "LONG_DEC": 143.40529,
   "CITY_NAME": "Yorke Island"
 },
 {
   "PORT_IATA": "TMN",
   "PORT_NAME": "Tamana",
   "LAT_DEC": -2.48605,
   "LONG_DEC": 175.97013,
   "CITY_NAME": "Tamana"
 },
 {
   "PORT_IATA": "WMO",
   "PORT_NAME": "White Mountain",
   "LAT_DEC": 64.68626,
   "LONG_DEC": -163.41098,
   "CITY_NAME": "White Mountain"
 },
 {
   "PORT_IATA": "SIG",
   "PORT_NAME": "San Juan F.L.Ribas Doiminicci",
   "LAT_DEC": 18.45694,
   "LONG_DEC": -66.09805,
   "CITY_NAME": "San Juan"
 },
 {
   "PORT_IATA": "SJU",
   "PORT_NAME": "San Juan Luis Munoz Marin Intl Apt",
   "LAT_DEC": 18.43944,
   "LONG_DEC": -66.00194,
   "CITY_NAME": "San Juan"
 },
 {
   "PORT_IATA": "ZVH",
   "PORT_NAME": "Al Ain Bus Station",
   "LAT_DEC": 24.22,
   "LONG_DEC": 55.76,
   "CITY_NAME": "Al Ain Bus Station"
 },
 {
   "PORT_IATA": "CKD",
   "PORT_NAME": "Crooked Creek",
   "LAT_DEC": 61.86666,
   "LONG_DEC": -158.13333,
   "CITY_NAME": "Crooked Creek"
 },
 {
   "PORT_IATA": "PQS",
   "PORT_NAME": "Pilot Station",
   "LAT_DEC": 61.93446,
   "LONG_DEC": -162.89912,
   "CITY_NAME": "Pilot Station"
 },
 {
   "PORT_IATA": "PTA",
   "PORT_NAME": "Port Alsworth",
   "LAT_DEC": 60.20234,
   "LONG_DEC": -154.32311,
   "CITY_NAME": "Port Alsworth"
 },
 {
   "PORT_IATA": "OGD",
   "PORT_NAME": "Ogden Hinckley Apt",
   "LAT_DEC": 41.19586,
   "LONG_DEC": -112.01044,
   "CITY_NAME": "Ogden"
 },
 {
   "PORT_IATA": "TPH",
   "PORT_NAME": "Tonopah Apt",
   "LAT_DEC": 38.06666,
   "LONG_DEC": -117.23333,
   "CITY_NAME": "Tonopah"
 },
 {
   "PORT_IATA": "UGB",
   "PORT_NAME": "Pilot Point Ugashik Bay Apt",
   "LAT_DEC": 57.42446,
   "LONG_DEC": -157.7445,
   "CITY_NAME": "Pilot Point"
 },
 {
   "PORT_IATA": "PIP",
   "PORT_NAME": "Pilot Point Airport",
   "LAT_DEC": 57.58027,
   "LONG_DEC": -157.57193,
   "CITY_NAME": "Pilot Point"
 },
 {
   "PORT_IATA": "MRI",
   "PORT_NAME": "Anchorage Merrill Field",
   "LAT_DEC": 61.23333,
   "LONG_DEC": -149.9,
   "CITY_NAME": "Anchorage"
 },
 {
   "PORT_IATA": "ANC",
   "PORT_NAME": "Anchorage Ted Stevens Intl Apt",
   "LAT_DEC": 61.17443,
   "LONG_DEC": -149.99638,
   "CITY_NAME": "Anchorage"
 },
 {
   "PORT_IATA": "CVN",
   "PORT_NAME": "Clovis Municipal Apt",
   "LAT_DEC": 34.42629,
   "LONG_DEC": -103.07874,
   "CITY_NAME": "Clovis"
 },
 {
   "PORT_IATA": "KTB",
   "PORT_NAME": "Thorne Bay Sea Plane Base",
   "LAT_DEC": 55.68333,
   "LONG_DEC": -132.53333,
   "CITY_NAME": "Thorne Bay"
 },
 {
   "PORT_IATA": "MLY",
   "PORT_NAME": "Manley Hot Springs",
   "LAT_DEC": 64.99804,
   "LONG_DEC": -150.64097,
   "CITY_NAME": "Manley Hot Springs"
 },
 {
   "PORT_IATA": "MNT",
   "PORT_NAME": "Al Wright",
   "LAT_DEC": 65.147,
   "LONG_DEC": -149.36735,
   "CITY_NAME": "Minto"
 },
 {
   "PORT_IATA": "BEC",
   "PORT_NAME": "Wichita Beech Factory Apt",
   "LAT_DEC": 37.68333,
   "LONG_DEC": -97.21666,
   "CITY_NAME": "Wichita"
 },
 {
   "PORT_IATA": "ICT",
   "PORT_NAME": "Wichita Dwight D. Eisenhower Apt",
   "LAT_DEC": 37.65277,
   "LONG_DEC": -97.43304,
   "CITY_NAME": "Wichita"
 },
 {
   "PORT_IATA": "SEE",
   "PORT_NAME": "San Diego Gillespie Field",
   "LAT_DEC": 32.82774,
   "LONG_DEC": -116.97247,
   "CITY_NAME": "San Diego"
 },
 {
   "PORT_IATA": "CLD",
   "PORT_NAME": "San Diego McClellan-Palomar Arpt",
   "LAT_DEC": 33.12833,
   "LONG_DEC": -117.28,
   "CITY_NAME": "San Diego"
 },
 {
   "PORT_IATA": "SAN",
   "PORT_NAME": "San Diego International",
   "LAT_DEC": 32.7336,
   "LONG_DEC": -117.18971,
   "CITY_NAME": "San Diego"
 },
 {
   "PORT_IATA": "SDM",
   "PORT_NAME": "San Diego Brown Municipal Apt",
   "LAT_DEC": 32.56666,
   "LONG_DEC": -116.98333,
   "CITY_NAME": "San Diego"
 },
 {
   "PORT_IATA": "MYF",
   "PORT_NAME": "San Diego Montgomery Field",
   "LAT_DEC": 32.81554,
   "LONG_DEC": -117.13831,
   "CITY_NAME": "San Diego"
 },
 {
   "PORT_IATA": "AAK",
   "PORT_NAME": "Aranuka",
   "LAT_DEC": 0.18503,
   "LONG_DEC": 173.63693,
   "CITY_NAME": "Aranuka"
 },
 {
   "PORT_IATA": "APO",
   "PORT_NAME": "Carepa-A.R. Betancourt",
   "LAT_DEC": 7.81225,
   "LONG_DEC": -76.71652,
   "CITY_NAME": "Apartado"
 },
 {
   "PORT_IATA": "AXS",
   "PORT_NAME": "Altus Quartz Mountain Rgnl",
   "LAT_DEC": 34.70277,
   "LONG_DEC": -99.33333,
   "CITY_NAME": "Altus"
 },
 {
   "PORT_IATA": "FHZ",
   "PORT_NAME": "Fakahina",
   "LAT_DEC": -15.99209,
   "LONG_DEC": -140.16472,
   "CITY_NAME": "Fakahina"
 },
 {
   "PORT_IATA": "LWK",
   "PORT_NAME": "Shetland Islands Lerwick/Tingwall Apt",
   "LAT_DEC": 60.19221,
   "LONG_DEC": -1.2436,
   "CITY_NAME": "Shetland Islands"
 },
 {
   "PORT_IATA": "LSI",
   "PORT_NAME": "Shetland Islands Sumburgh Apt",
   "LAT_DEC": 59.87888,
   "LONG_DEC": -1.29555,
   "CITY_NAME": "Shetland Islands"
 },
 {
   "PORT_IATA": "MWE",
   "PORT_NAME": "Merowe",
   "LAT_DEC": 18.4425,
   "LONG_DEC": 31.84311,
   "CITY_NAME": "Merowe"
 },
 {
   "PORT_IATA": "HBQ",
   "PORT_NAME": "Haibei",
   "LAT_DEC": 38.00833,
   "LONG_DEC": 100.64083,
   "CITY_NAME": "Qilian"
 },
 {
   "PORT_IATA": "YRA",
   "PORT_NAME": "Rae Lakes",
   "LAT_DEC": 64.11569,
   "LONG_DEC": -117.30905,
   "CITY_NAME": "Rae Lakes"
 },
 {
   "PORT_IATA": "GSE",
   "PORT_NAME": "Goteborg City Apt",
   "LAT_DEC": 57.77471,
   "LONG_DEC": 11.87027,
   "CITY_NAME": "Goteborg"
 },
 {
   "PORT_IATA": "GOT",
   "PORT_NAME": "Goteborg Landvetter Apt",
   "LAT_DEC": 57.66277,
   "LONG_DEC": 12.27971,
   "CITY_NAME": "Goteborg"
 },
 {
   "PORT_IATA": "YOG",
   "PORT_NAME": "Ogoki Post",
   "LAT_DEC": 51.65799,
   "LONG_DEC": -85.90167,
   "CITY_NAME": "Ogoki"
 },
 {
   "PORT_IATA": "ADB",
   "PORT_NAME": "Izmir Adnan Menderes Apt",
   "LAT_DEC": 38.29249,
   "LONG_DEC": 27.15694,
   "CITY_NAME": "Izmir"
 },
 {
   "PORT_IATA": "KCG",
   "PORT_NAME": "Chignik Apt",
   "LAT_DEC": 56.31032,
   "LONG_DEC": -158.37465,
   "CITY_NAME": "Chignik"
 },
 {
   "PORT_IATA": "KCQ",
   "PORT_NAME": "Chignik Lake Apt",
   "LAT_DEC": 56.25553,
   "LONG_DEC": -158.77927,
   "CITY_NAME": "Chignik"
 },
 {
   "PORT_IATA": "KCL",
   "PORT_NAME": "Chignik Lagoon Apt",
   "LAT_DEC": 56.3119,
   "LONG_DEC": -158.53131,
   "CITY_NAME": "Chignik"
 },
 {
   "PORT_IATA": "KTF",
   "PORT_NAME": "Takaka",
   "LAT_DEC": -40.85,
   "LONG_DEC": 172.8,
   "CITY_NAME": "Takaka"
 },
 {
   "PORT_IATA": "MRA",
   "PORT_NAME": "Misurata",
   "LAT_DEC": 32.32187,
   "LONG_DEC": 15.06125,
   "CITY_NAME": "Misurata"
 },
 {
   "PORT_IATA": "HKB",
   "PORT_NAME": "Healy Lake",
   "LAT_DEC": 63.86723,
   "LONG_DEC": -148.97009,
   "CITY_NAME": "Healy Lake"
 },
 {
   "PORT_IATA": "ZDJ",
   "PORT_NAME": "Berne Rail Station",
   "LAT_DEC": 46.91943,
   "LONG_DEC": 7.5,
   "CITY_NAME": "Berne"
 },
 {
   "PORT_IATA": "BRN",
   "PORT_NAME": "Berne Belp",
   "LAT_DEC": 46.91416,
   "LONG_DEC": 7.49721,
   "CITY_NAME": "Berne"
 },
 {
   "PORT_IATA": "DJH",
   "PORT_NAME": "Dubai Jebel Ali SPB",
   "LAT_DEC": 25.00193,
   "LONG_DEC": 55.02401,
   "CITY_NAME": "Dubai Jebel Ali SPB"
 },
 {
   "PORT_IATA": "CGK",
   "PORT_NAME": "Jakarta Soekarno-Hatta Apt",
   "LAT_DEC": -6.12554,
   "LONG_DEC": 106.65583,
   "CITY_NAME": "Jakarta"
 },
 {
   "PORT_IATA": "HLP",
   "PORT_NAME": "Jakarta Halim Perdanakusuma Apt",
   "LAT_DEC": -6.26666,
   "LONG_DEC": 106.8911,
   "CITY_NAME": "Jakarta"
 },
 {
   "PORT_IATA": "BDG",
   "PORT_NAME": "Blanding Municipal",
   "LAT_DEC": 37.58333,
   "LONG_DEC": -109.48333,
   "CITY_NAME": "Blanding"
 },
 {
   "PORT_IATA": "BCE",
   "PORT_NAME": "Bryce Canyon",
   "LAT_DEC": 37.7,
   "LONG_DEC": -112.15,
   "CITY_NAME": "Bryce Canyon"
 },
 {
   "PORT_IATA": "YNL",
   "PORT_NAME": "Points North Landing",
   "LAT_DEC": 58.27499,
   "LONG_DEC": -104.0811,
   "CITY_NAME": "Points North Landing"
 },
 {
   "PORT_IATA": "GEG",
   "PORT_NAME": "Spokane International Apt",
   "LAT_DEC": 47.61696,
   "LONG_DEC": -117.53989,
   "CITY_NAME": "Spokane"
 },
 {
   "PORT_IATA": "SFF",
   "PORT_NAME": "Spokane Felts Field",
   "LAT_DEC": 47.68305,
   "LONG_DEC": -117.3225,
   "CITY_NAME": "Spokane"
 },
 {
   "PORT_IATA": "PLU",
   "PORT_NAME": "Belo Horizonte Pampulha Apt",
   "LAT_DEC": -19.85111,
   "LONG_DEC": -43.95055,
   "CITY_NAME": "Belo Horizonte"
 },
 {
   "PORT_IATA": "CNF",
   "PORT_NAME": "Belo Horizonte Tancredo Neves Int Apt",
   "LAT_DEC": -19.63388,
   "LONG_DEC": -43.96888,
   "CITY_NAME": "Belo Horizonte"
 },
 {
   "PORT_IATA": "DJN",
   "PORT_NAME": "Delta Junction Airport",
   "LAT_DEC": 64.05042,
   "LONG_DEC": -145.7253,
   "CITY_NAME": "Delta Junction"
 },
 {
   "PORT_IATA": "MEO",
   "PORT_NAME": "Manteo",
   "LAT_DEC": 35.91882,
   "LONG_DEC": -75.69596,
   "CITY_NAME": "Manteo"
 },
 {
   "PORT_IATA": "WNN",
   "PORT_NAME": "Wunnummin Lake",
   "LAT_DEC": 52.89461,
   "LONG_DEC": -89.2906,
   "CITY_NAME": "Wunnummin Lake"
 },
 {
   "PORT_IATA": "PNY",
   "PORT_NAME": "Pondicherry",
   "LAT_DEC": 11.96809,
   "LONG_DEC": 79.81126,
   "CITY_NAME": "Pondicherry"
 },
 {
   "PORT_IATA": "SDU",
   "PORT_NAME": "Rio de Janeiro Santos Dumont Apt",
   "LAT_DEC": -22.91055,
   "LONG_DEC": -43.16305,
   "CITY_NAME": "Rio de Janeiro"
 },
 {
   "PORT_IATA": "GIG",
   "PORT_NAME": "Rio de Janeiro Galeao-A.C.Jobim Int Apt",
   "LAT_DEC": -22.81244,
   "LONG_DEC": -43.24828,
   "CITY_NAME": "Rio de Janeiro"
 },
 {
   "PORT_IATA": "QEW",
   "PORT_NAME": "Leicester Rail Station",
   "LAT_DEC": 52.63111,
   "LONG_DEC": -1.12472,
   "CITY_NAME": "Leicester Rail Station"
 },
 {
   "PORT_IATA": "WWI",
   "PORT_NAME": "Woodie Woodie",
   "LAT_DEC": -21.64508,
   "LONG_DEC": 121.19076,
   "CITY_NAME": "Woodie Woodie"
 },
 {
   "PORT_IATA": "EOH",
   "PORT_NAME": "Medellin Enrique Olaya Herrerra Apt",
   "LAT_DEC": 6.21999,
   "LONG_DEC": -75.59055,
   "CITY_NAME": "Medellin"
 },
 {
   "PORT_IATA": "MDE",
   "PORT_NAME": "Medellin Jose Maria Cordova Intl",
   "LAT_DEC": 6.16444,
   "LONG_DEC": -75.42304,
   "CITY_NAME": "Medellin"
 },
 {
   "PORT_IATA": "RVD",
   "PORT_NAME": "Leite de Castro",
   "LAT_DEC": -17.83325,
   "LONG_DEC": -50.95543,
   "CITY_NAME": "Rio Verde"
 },
 {
   "PORT_IATA": "QKU",
   "PORT_NAME": "Cologne/Bonn Messe/Deutz Rail Stn",
   "LAT_DEC": 50.94034,
   "LONG_DEC": 6.97437,
   "CITY_NAME": "Cologne/Bonn"
 },
 {
   "PORT_IATA": "CGN",
   "PORT_NAME": "Cologne/Bonn Apt",
   "LAT_DEC": 50.86583,
   "LONG_DEC": 7.14277,
   "CITY_NAME": "Cologne/Bonn"
 },
 {
   "PORT_IATA": "QKL",
   "PORT_NAME": "Cologne/Bonn, Cologne Hbf Rail Stn",
   "LAT_DEC": 50.94331,
   "LONG_DEC": 6.95819,
   "CITY_NAME": "Cologne/Bonn"
 },
 {
   "PORT_IATA": "NDE",
   "PORT_NAME": "Mandera",
   "LAT_DEC": 3.93401,
   "LONG_DEC": 41.84439,
   "CITY_NAME": "Mandera"
 },
 {
   "PORT_IATA": "WSH",
   "PORT_NAME": "Shirley",
   "LAT_DEC": 40.78333,
   "LONG_DEC": -72.91666,
   "CITY_NAME": "Shirley"
 },
 {
   "PORT_IATA": "YCK",
   "PORT_NAME": "Colville Lake",
   "LAT_DEC": 67.03956,
   "LONG_DEC": -126.08087,
   "CITY_NAME": "Colville Lake"
 },
 {
   "PORT_IATA": "DUR",
   "PORT_NAME": "Durban King Shaka International Apt",
   "LAT_DEC": -29.61444,
   "LONG_DEC": 31.11638,
   "CITY_NAME": "Durban"
 },
 {
   "PORT_IATA": "TCT",
   "PORT_NAME": "Takotna",
   "LAT_DEC": 62.99251,
   "LONG_DEC": -156.0702,
   "CITY_NAME": "Takotna"
 },
 {
   "PORT_IATA": "TOA",
   "PORT_NAME": "Zamperini Field",
   "LAT_DEC": 33.78333,
   "LONG_DEC": -118.25,
   "CITY_NAME": "Torrance"
 },
 {
   "PORT_IATA": "NRE",
   "PORT_NAME": "Namrole",
   "LAT_DEC": -3.85474,
   "LONG_DEC": 126.70154,
   "CITY_NAME": "Namrole"
 },
 {
   "PORT_IATA": "MEU",
   "PORT_NAME": "Serra do Areao",
   "LAT_DEC": -0.88444,
   "LONG_DEC": -52.6,
   "CITY_NAME": "Monte Dourado"
 },
 {
   "PORT_IATA": "CUK",
   "PORT_NAME": "Caye Caulker",
   "LAT_DEC": 17.73506,
   "LONG_DEC": -88.03236,
   "CITY_NAME": "Caye Caulker"
 },
 {
   "PORT_IATA": "SZP",
   "PORT_NAME": "Santa Paula",
   "LAT_DEC": 34.34694,
   "LONG_DEC": -119.06166,
   "CITY_NAME": "Santa Paula"
 },
 {
   "PORT_IATA": "POI",
   "PORT_NAME": "Capitan Nicolas Rojas",
   "LAT_DEC": -19.54328,
   "LONG_DEC": -65.72371,
   "CITY_NAME": "Potosi"
 },
 {
   "PORT_IATA": "LIX",
   "PORT_NAME": "Likoma Island",
   "LAT_DEC": -12.0802,
   "LONG_DEC": 34.7363,
   "CITY_NAME": "Likoma Island"
 },
 {
   "PORT_IATA": "AOG",
   "PORT_NAME": "Teng'ao",
   "LAT_DEC": 41.10551,
   "LONG_DEC": 122.85609,
   "CITY_NAME": "Anshan"
 },
 {
   "PORT_IATA": "ETM",
   "PORT_NAME": "Ramon International",
   "LAT_DEC": 29.72722,
   "LONG_DEC": 34.99833,
   "CITY_NAME": "Eilat"
 },
 {
   "PORT_IATA": "FUO",
   "PORT_NAME": "Shadi",
   "LAT_DEC": 23.0816,
   "LONG_DEC": 113.06988,
   "CITY_NAME": "Foshan"
 },
 {
   "PORT_IATA": "JNG",
   "PORT_NAME": "Qufu",
   "LAT_DEC": 35.29301,
   "LONG_DEC": 116.34649,
   "CITY_NAME": "Jining"
 },
 {
   "PORT_IATA": "TNH",
   "PORT_NAME": "Sanyuanpu",
   "LAT_DEC": 42.25283,
   "LONG_DEC": 125.70444,
   "CITY_NAME": "Tonghua"
 },
 {
   "PORT_IATA": "OCE",
   "PORT_NAME": "Ocean City",
   "LAT_DEC": 38.30914,
   "LONG_DEC": -75.12037,
   "CITY_NAME": "Ocean City"
 },
 {
   "PORT_IATA": "PGM",
   "PORT_NAME": "Port Graham",
   "LAT_DEC": 59.34945,
   "LONG_DEC": -151.8311,
   "CITY_NAME": "Port Graham"
 },
 {
   "PORT_IATA": "PLJ",
   "PORT_NAME": "Placencia",
   "LAT_DEC": 16.53708,
   "LONG_DEC": -88.36103,
   "CITY_NAME": "Placencia"
 },
 {
   "PORT_IATA": "BFT",
   "PORT_NAME": "Beaufort County",
   "LAT_DEC": 32.4115,
   "LONG_DEC": -80.6358,
   "CITY_NAME": "Beaufort"
 },
 {
   "PORT_IATA": "BJU",
   "PORT_NAME": "Bajura",
   "LAT_DEC": 29.35,
   "LONG_DEC": 81.3,
   "CITY_NAME": "Bajura"
 },
 {
   "PORT_IATA": "LBR",
   "PORT_NAME": "Labrea",
   "LAT_DEC": -7.27879,
   "LONG_DEC": -64.76949,
   "CITY_NAME": "Labrea"
 },
 {
   "PORT_IATA": "IDI",
   "PORT_NAME": "Indiana County",
   "LAT_DEC": 40.63111,
   "LONG_DEC": -79.1018,
   "CITY_NAME": "Indiana"
 },
 {
   "PORT_IATA": "PTV",
   "PORT_NAME": "Porterville Municipal",
   "LAT_DEC": 36.03333,
   "LONG_DEC": -119.06666,
   "CITY_NAME": "Porterville"
 },
 {
   "PORT_IATA": "JIN",
   "PORT_NAME": "Jinja",
   "LAT_DEC": 0.45188,
   "LONG_DEC": 33.19424,
   "CITY_NAME": "Jinja"
 },
 {
   "PORT_IATA": "JJN",
   "PORT_NAME": "Jinjiang",
   "LAT_DEC": 24.79531,
   "LONG_DEC": 118.58797,
   "CITY_NAME": "Quanzhou"
 },
 {
   "PORT_IATA": "RHR",
   "PORT_NAME": "Ras al Khaimah Al Hamra SPB",
   "LAT_DEC": 25.69049,
   "LONG_DEC": 55.77774,
   "CITY_NAME": "Ras al Khaimah Al Hamra SPB"
 },
 {
   "PORT_IATA": "SXV",
   "PORT_NAME": "Salem",
   "LAT_DEC": 11.78097,
   "LONG_DEC": 78.0634,
   "CITY_NAME": "Salem"
 },
 {
   "PORT_IATA": "SXY",
   "PORT_NAME": "Sidney Municipal",
   "LAT_DEC": 42.31666,
   "LONG_DEC": -75.4,
   "CITY_NAME": "Sidney"
 },
 {
   "PORT_IATA": "ZFD",
   "PORT_NAME": "Fond du Lac",
   "LAT_DEC": 59.33505,
   "LONG_DEC": -107.18426,
   "CITY_NAME": "Fond du Lac"
 },
 {
   "PORT_IATA": "XRJ",
   "PORT_NAME": "Rome Termini Rail Station",
   "LAT_DEC": 41.90105,
   "LONG_DEC": 12.50193,
   "CITY_NAME": "Rome"
 },
 {
   "PORT_IATA": "FCO",
   "PORT_NAME": "Rome Fiumicino Apt",
   "LAT_DEC": 41.80027,
   "LONG_DEC": 12.23888,
   "CITY_NAME": "Rome"
 },
 {
   "PORT_IATA": "CIA",
   "PORT_NAME": "Rome Ciampino Apt",
   "LAT_DEC": 41.79869,
   "LONG_DEC": 12.59494,
   "CITY_NAME": "Rome"
 },
 {
   "PORT_IATA": "XVQ",
   "PORT_NAME": "Venice Santa Lucia Rail Station",
   "LAT_DEC": 45.44104,
   "LONG_DEC": 12.32098,
   "CITY_NAME": "Venice"
 },
 {
   "PORT_IATA": "TSF",
   "PORT_NAME": "Venice Treviso/Sant'Angelo Apt",
   "LAT_DEC": 45.65083,
   "LONG_DEC": 12.19777,
   "CITY_NAME": "Venice"
 },
 {
   "PORT_IATA": "VCE",
   "PORT_NAME": "Venice Marco Polo Apt",
   "LAT_DEC": 45.50527,
   "LONG_DEC": 12.35194,
   "CITY_NAME": "Venice"
 },
 {
   "PORT_IATA": "XVY",
   "PORT_NAME": "Venice Mestre Rail Station",
   "LAT_DEC": 45.48232,
   "LONG_DEC": 12.23207,
   "CITY_NAME": "Venice"
 },
 {
   "PORT_IATA": "AEL",
   "PORT_NAME": "Albert Lea Municipal",
   "LAT_DEC": 43.68333,
   "LONG_DEC": -93.36666,
   "CITY_NAME": "Albert Lea"
 },
 {
   "PORT_IATA": "CIN",
   "PORT_NAME": "Arthur N. Neu",
   "LAT_DEC": 42.05,
   "LONG_DEC": -94.78333,
   "CITY_NAME": "Carroll"
 },
 {
   "PORT_IATA": "CIR",
   "PORT_NAME": "Cairo",
   "LAT_DEC": 37.06666,
   "LONG_DEC": -89.21666,
   "CITY_NAME": "Cairo"
 },
 {
   "PORT_IATA": "COL",
   "PORT_NAME": "Coll",
   "LAT_DEC": 56.60192,
   "LONG_DEC": -6.61777,
   "CITY_NAME": "Coll"
 },
 {
   "PORT_IATA": "CRS",
   "PORT_NAME": "C. David Campbell Fld",
   "LAT_DEC": 32.1,
   "LONG_DEC": -96.46666,
   "CITY_NAME": "Corsicana"
 },
 {
   "PORT_IATA": "BQC",
   "PORT_NAME": "Sainte-Foy Bus Station",
   "LAT_DEC": 46.76913,
   "LONG_DEC": -71.30779,
   "CITY_NAME": "Sainte-Foy Bus Station"
 },
 {
   "PORT_IATA": "GGR",
   "PORT_NAME": "Garowe",
   "LAT_DEC": 8.45794,
   "LONG_DEC": 48.56729,
   "CITY_NAME": "Garowe"
 },
 {
   "PORT_IATA": "GIT",
   "PORT_NAME": "Geita",
   "LAT_DEC": -2.86666,
   "LONG_DEC": 32.16666,
   "CITY_NAME": "Geita"
 },
 {
   "PORT_IATA": "OLV",
   "PORT_NAME": "Olive Branch",
   "LAT_DEC": 34.97886,
   "LONG_DEC": -89.78681,
   "CITY_NAME": "Olive Branch"
 },
 {
   "PORT_IATA": "OMM",
   "PORT_NAME": "Marmul",
   "LAT_DEC": 18.13806,
   "LONG_DEC": 55.17984,
   "CITY_NAME": "Marmul"
 },
 {
   "PORT_IATA": "VBA",
   "PORT_NAME": "Ann",
   "LAT_DEC": 19.77,
   "LONG_DEC": 94.02611,
   "CITY_NAME": "Ann"
 },
 {
   "PORT_IATA": "ONY",
   "PORT_NAME": "Olney Municipal",
   "LAT_DEC": 33.36666,
   "LONG_DEC": -98.75,
   "CITY_NAME": "Olney"
 },
 {
   "PORT_IATA": "ORU",
   "PORT_NAME": "Juan Mendoza",
   "LAT_DEC": -17.95249,
   "LONG_DEC": -67.07566,
   "CITY_NAME": "Oruro"
 },
 {
   "PORT_IATA": "XIT",
   "PORT_NAME": "Leipzig Hbf Rail Station",
   "LAT_DEC": 51.34559,
   "LONG_DEC": 12.38154,
   "CITY_NAME": "Leipzig/Halle"
 },
 {
   "PORT_IATA": "LEJ",
   "PORT_NAME": "Leipzig/Halle Airport",
   "LAT_DEC": 51.4325,
   "LONG_DEC": 12.24166,
   "CITY_NAME": "Leipzig/Halle"
 },
 {
   "PORT_IATA": "POY",
   "PORT_NAME": "Powell Municipal",
   "LAT_DEC": 44.86666,
   "LONG_DEC": -108.8,
   "CITY_NAME": "Powell/Lovell"
 },
 {
   "PORT_IATA": "AMW",
   "PORT_NAME": "Ames Municipal",
   "LAT_DEC": 42,
   "LONG_DEC": -93.61666,
   "CITY_NAME": "Ames"
 },
 {
   "PORT_IATA": "ANY",
   "PORT_NAME": "Anthony Municipal",
   "LAT_DEC": 37.15,
   "LONG_DEC": -98.03333,
   "CITY_NAME": "Anthony"
 },
 {
   "PORT_IATA": "MWH",
   "PORT_NAME": "Grant County Intl",
   "LAT_DEC": 47.20448,
   "LONG_DEC": -119.31648,
   "CITY_NAME": "Moses Lake"
 },
 {
   "PORT_IATA": "ASY",
   "PORT_NAME": "Ashley Municipal",
   "LAT_DEC": 46.03333,
   "LONG_DEC": -99.36666,
   "CITY_NAME": "Ashley"
 },
 {
   "PORT_IATA": "ATS",
   "PORT_NAME": "Artesia Municipal",
   "LAT_DEC": 32.85,
   "LONG_DEC": -104.46666,
   "CITY_NAME": "Artesia"
 },
 {
   "PORT_IATA": "AXG",
   "PORT_NAME": "Algona Municipal",
   "LAT_DEC": 43.06666,
   "LONG_DEC": -94.23333,
   "CITY_NAME": "Algona"
 },
 {
   "PORT_IATA": "AXX",
   "PORT_NAME": "Angel Fire",
   "LAT_DEC": 36.41666,
   "LONG_DEC": -105.28333,
   "CITY_NAME": "Angel Fire"
 },
 {
   "PORT_IATA": "BTW",
   "PORT_NAME": "Batu Licin",
   "LAT_DEC": -3.45,
   "LONG_DEC": 116,
   "CITY_NAME": "Batu Licin"
 },
 {
   "PORT_IATA": "BVY",
   "PORT_NAME": "Beverly",
   "LAT_DEC": 42.58416,
   "LONG_DEC": -70.91611,
   "CITY_NAME": "Beverly"
 },
 {
   "PORT_IATA": "BWC",
   "PORT_NAME": "Brawley",
   "LAT_DEC": 32.98333,
   "LONG_DEC": -115.51666,
   "CITY_NAME": "Brawley"
 },
 {
   "PORT_IATA": "BXS",
   "PORT_NAME": "Borrego Springs",
   "LAT_DEC": 33.25,
   "LONG_DEC": -116.31666,
   "CITY_NAME": "Borrego Springs"
 },
 {
   "PORT_IATA": "BYR",
   "PORT_NAME": "Laeso",
   "LAT_DEC": 57.27722,
   "LONG_DEC": 11,
   "CITY_NAME": "Laeso"
 },
 {
   "PORT_IATA": "ISR",
   "PORT_NAME": "Salerno Rail Station",
   "LAT_DEC": 40.67527,
   "LONG_DEC": 14.77222,
   "CITY_NAME": "Salerno"
 },
 {
   "PORT_IATA": "CTW",
   "PORT_NAME": "Cottonwood",
   "LAT_DEC": 34.73007,
   "LONG_DEC": -112.03518,
   "CITY_NAME": "Cottonwood"
 },
 {
   "PORT_IATA": "CXC",
   "PORT_NAME": "Chitina",
   "LAT_DEC": 61.56666,
   "LONG_DEC": -144.41666,
   "CITY_NAME": "Chitina"
 },
 {
   "PORT_IATA": "CYA",
   "PORT_NAME": "Antonie-Simon",
   "LAT_DEC": 18.26666,
   "LONG_DEC": -73.78333,
   "CITY_NAME": "Les Cayes"
 },
 {
   "PORT_IATA": "AXJ",
   "PORT_NAME": "Amakusa",
   "LAT_DEC": 32.48222,
   "LONG_DEC": 130.15888,
   "CITY_NAME": "Amakusa"
 },
 {
   "PORT_IATA": "DKK",
   "PORT_NAME": "Chautauqua County",
   "LAT_DEC": 42.48333,
   "LONG_DEC": -79.33333,
   "CITY_NAME": "Dunkirk"
 },
 {
   "PORT_IATA": "GKN",
   "PORT_NAME": "Gulkana",
   "LAT_DEC": 62.15648,
   "LONG_DEC": -145.45447,
   "CITY_NAME": "Gulkana"
 },
 {
   "PORT_IATA": "GKT",
   "PORT_NAME": "Gatlinburg",
   "LAT_DEC": 35.85,
   "LONG_DEC": -83.51666,
   "CITY_NAME": "Sevierville"
 },
 {
   "PORT_IATA": "AHJ",
   "PORT_NAME": "Aba Hongyuan",
   "LAT_DEC": 32.53138,
   "LONG_DEC": 102.35194,
   "CITY_NAME": "Aba Hongyuan"
 },
 {
   "PORT_IATA": "HAB",
   "PORT_NAME": "Marion Co. Rankin Fite",
   "LAT_DEC": 34.11666,
   "LONG_DEC": -88,
   "CITY_NAME": "Hamilton"
 },
 {
   "PORT_IATA": "HAO",
   "PORT_NAME": "Butler County Regional",
   "LAT_DEC": 39.36375,
   "LONG_DEC": -84.52194,
   "CITY_NAME": "Hamilton"
 },
 {
   "PORT_IATA": "HMI",
   "PORT_NAME": "Hami",
   "LAT_DEC": 42.84063,
   "LONG_DEC": 93.67079,
   "CITY_NAME": "Hami"
 },
 {
   "PORT_IATA": "HNC",
   "PORT_NAME": "Billy Mitchell",
   "LAT_DEC": 35.23256,
   "LONG_DEC": -75.61815,
   "CITY_NAME": "Hatteras"
 },
 {
   "PORT_IATA": "HNN",
   "PORT_NAME": "Honinabi",
   "LAT_DEC": -6.24604,
   "LONG_DEC": 142.17692,
   "CITY_NAME": "Honinabi"
 },
 {
   "PORT_IATA": "JJG",
   "PORT_NAME": "Humberto Bortoluzzi",
   "LAT_DEC": -28.67527,
   "LONG_DEC": -49.05944,
   "CITY_NAME": "Jaguaruna"
 },
 {
   "PORT_IATA": "HTH",
   "PORT_NAME": "Hawthorne Industrial",
   "LAT_DEC": 38.55,
   "LONG_DEC": -118.63333,
   "CITY_NAME": "Hawthorne"
 },
 {
   "PORT_IATA": "CLJ",
   "PORT_NAME": "Cluj-Napoca",
   "LAT_DEC": 46.78527,
   "LONG_DEC": 23.6861,
   "CITY_NAME": "Cluj-Napoca"
 },
 {
   "PORT_IATA": "INB",
   "PORT_NAME": "Independence",
   "LAT_DEC": 16.53395,
   "LONG_DEC": -88.44281,
   "CITY_NAME": "Independence"
 },
 {
   "PORT_IATA": "IXT",
   "PORT_NAME": "Pasighat",
   "LAT_DEC": 28.06696,
   "LONG_DEC": 95.33615,
   "CITY_NAME": "Pasighat"
 },
 {
   "PORT_IATA": "PSN",
   "PORT_NAME": "Palestine Municipal",
   "LAT_DEC": 31.75,
   "LONG_DEC": -95.61666,
   "CITY_NAME": "Palestine"
 },
 {
   "PORT_IATA": "RIE",
   "PORT_NAME": "Regional-Carl's Field",
   "LAT_DEC": 45.5,
   "LONG_DEC": -91.73333,
   "CITY_NAME": "Rice Lake"
 },
 {
   "PORT_IATA": "RKH",
   "PORT_NAME": "York County-Bryant Field",
   "LAT_DEC": 34.93333,
   "LONG_DEC": -81.01666,
   "CITY_NAME": "Rock Hill"
 },
 {
   "PORT_IATA": "ROG",
   "PORT_NAME": "Municipal - Carter Fld",
   "LAT_DEC": 36.371,
   "LONG_DEC": -94.10752,
   "CITY_NAME": "Rogers"
 },
 {
   "PORT_IATA": "RSN",
   "PORT_NAME": "Ruston Regional",
   "LAT_DEC": 32.51666,
   "LONG_DEC": -92.61666,
   "CITY_NAME": "Ruston"
 },
 {
   "PORT_IATA": "BCU",
   "PORT_NAME": "Bauchi",
   "LAT_DEC": 10.29234,
   "LONG_DEC": 9.81711,
   "CITY_NAME": "Bauchi"
 },
 {
   "PORT_IATA": "BDY",
   "PORT_NAME": "Bandon",
   "LAT_DEC": 43.11666,
   "LONG_DEC": -124.41666,
   "CITY_NAME": "Bandon"
 },
 {
   "PORT_IATA": "CHW",
   "PORT_NAME": "Royal Well Bus Station",
   "LAT_DEC": 51.89944,
   "LONG_DEC": -2.07805,
   "CITY_NAME": "Cheltenham Bus Station"
 },
 {
   "PORT_IATA": "BIB",
   "PORT_NAME": "Baidoa",
   "LAT_DEC": 3.10236,
   "LONG_DEC": 43.62756,
   "CITY_NAME": "Baidoa"
 },
 {
   "PORT_IATA": "BKB",
   "PORT_NAME": "Nal",
   "LAT_DEC": 28.01666,
   "LONG_DEC": 73.3,
   "CITY_NAME": "Bikaner"
 },
 {
   "PORT_IATA": "BNO",
   "PORT_NAME": "Burns Municipal",
   "LAT_DEC": 43.58333,
   "LONG_DEC": -118.95,
   "CITY_NAME": "Burns"
 },
 {
   "PORT_IATA": "CDP",
   "PORT_NAME": "Cuddapah",
   "LAT_DEC": 14.51251,
   "LONG_DEC": 78.77226,
   "CITY_NAME": "Cuddapah"
 },
 {
   "PORT_IATA": "DRE",
   "PORT_NAME": "Drummond Island",
   "LAT_DEC": 46.00863,
   "LONG_DEC": -83.7463,
   "CITY_NAME": "Drummond Island"
 },
 {
   "PORT_IATA": "DTL",
   "PORT_NAME": "Wething Field",
   "LAT_DEC": 46.83333,
   "LONG_DEC": -95.88333,
   "CITY_NAME": "Detroit Lakes"
 },
 {
   "PORT_IATA": "DXR",
   "PORT_NAME": "Danbury Municipal",
   "LAT_DEC": 41.37111,
   "LONG_DEC": -73.48199,
   "CITY_NAME": "Danbury"
 },
 {
   "PORT_IATA": "EBM",
   "PORT_NAME": "El-Borma",
   "LAT_DEC": 31.70378,
   "LONG_DEC": 9.25494,
   "CITY_NAME": "El-Borma"
 },
 {
   "PORT_IATA": "XRL",
   "PORT_NAME": "Reggio nell'Emilia Mediopadana Rail Stn",
   "LAT_DEC": 44.69666,
   "LONG_DEC": 10.64916,
   "CITY_NAME": "Reggio nell'Emilia Mediopadana Rail Stn"
 },
 {
   "PORT_IATA": "EVW",
   "PORT_NAME": "Uinta County",
   "LAT_DEC": 41.35,
   "LONG_DEC": -111.01666,
   "CITY_NAME": "Evanston"
 },
 {
   "PORT_IATA": "FBL",
   "PORT_NAME": "Faribault",
   "LAT_DEC": 44.33333,
   "LONG_DEC": -93.31666,
   "CITY_NAME": "Faribault"
 },
 {
   "PORT_IATA": "GPP",
   "PORT_NAME": "Genoa Plazza Principe Rail Stn",
   "LAT_DEC": 44.41748,
   "LONG_DEC": 8.91976,
   "CITY_NAME": "Genoa Plazza Principe Rail Stn"
 },
 {
   "PORT_IATA": "LEE",
   "PORT_NAME": "Leesburg International",
   "LAT_DEC": 28.82211,
   "LONG_DEC": -81.80701,
   "CITY_NAME": "Leesburg"
 },
 {
   "PORT_IATA": "NOT",
   "PORT_NAME": "Marin County",
   "LAT_DEC": 38.14361,
   "LONG_DEC": -122.55611,
   "CITY_NAME": "Novato"
 },
 {
   "PORT_IATA": "SAD",
   "PORT_NAME": "Safford Regional",
   "LAT_DEC": 32.85,
   "LONG_DEC": -109.63333,
   "CITY_NAME": "Safford"
 },
 {
   "PORT_IATA": "GXH",
   "PORT_NAME": "Gannan Xiahe",
   "LAT_DEC": 34.81888,
   "LONG_DEC": 102.62083,
   "CITY_NAME": "Xiahe"
 },
 {
   "PORT_IATA": "BPE",
   "PORT_NAME": "Beidaihe",
   "LAT_DEC": 39.66638,
   "LONG_DEC": 119.06,
   "CITY_NAME": "Qinhaungdao"
 },
 {
   "PORT_IATA": "SFM",
   "PORT_NAME": "Seacoast Regional",
   "LAT_DEC": 43.39217,
   "LONG_DEC": -70.70761,
   "CITY_NAME": "Sanford"
 },
 {
   "PORT_IATA": "SGZ",
   "PORT_NAME": "Songkhla",
   "LAT_DEC": 7.33333,
   "LONG_DEC": 100.53333,
   "CITY_NAME": "Songkhla"
 },
 {
   "PORT_IATA": "SLT",
   "PORT_NAME": "Harriet Alexander Fld",
   "LAT_DEC": 38.53828,
   "LONG_DEC": -106.04878,
   "CITY_NAME": "Salida"
 },
 {
   "PORT_IATA": "SMG",
   "PORT_NAME": "Santa Maria",
   "LAT_DEC": -12.39138,
   "LONG_DEC": -76.75583,
   "CITY_NAME": "Santa Maria"
 },
 {
   "PORT_IATA": "TKD",
   "PORT_NAME": "Takoradi",
   "LAT_DEC": 4.89538,
   "LONG_DEC": -1.77452,
   "CITY_NAME": "Takoradi"
 },
 {
   "PORT_IATA": "TKF",
   "PORT_NAME": "Truckee-Tahoe",
   "LAT_DEC": 39.31829,
   "LONG_DEC": -120.13815,
   "CITY_NAME": "Truckee"
 },
 {
   "PORT_IATA": "SAJ",
   "PORT_NAME": "Salamanca Bus Station",
   "LAT_DEC": 40.97027,
   "LONG_DEC": -5.67527,
   "CITY_NAME": "Salamanca Bus Station"
 },
 {
   "PORT_IATA": "TRM",
   "PORT_NAME": "J. Cochran Regional",
   "LAT_DEC": 33.62083,
   "LONG_DEC": -116.15848,
   "CITY_NAME": "Thermal"
 },
 {
   "PORT_IATA": "TTD",
   "PORT_NAME": "Troutdale",
   "LAT_DEC": 45.53333,
   "LONG_DEC": -122.38333,
   "CITY_NAME": "Portland"
 },
 {
   "PORT_IATA": "TYD",
   "PORT_NAME": "Tynda",
   "LAT_DEC": 55.2846,
   "LONG_DEC": 124.77796,
   "CITY_NAME": "Tynda"
 },
 {
   "PORT_IATA": "TYM",
   "PORT_NAME": "Staniel Cay",
   "LAT_DEC": 24.1525,
   "LONG_DEC": -76.43388,
   "CITY_NAME": "Staniel Cay"
 },
 {
   "PORT_IATA": "UBU",
   "PORT_NAME": "Kalumburu",
   "LAT_DEC": -14.41666,
   "LONG_DEC": 126.66666,
   "CITY_NAME": "Kalumburu"
 },
 {
   "PORT_IATA": "UES",
   "PORT_NAME": "Waukesha County",
   "LAT_DEC": 43.04199,
   "LONG_DEC": -88.23758,
   "CITY_NAME": "Waukesha"
 },
 {
   "PORT_IATA": "ULM",
   "PORT_NAME": "New Ulm Municipal",
   "LAT_DEC": 44.31666,
   "LONG_DEC": -94.5,
   "CITY_NAME": "New Ulm"
 },
 {
   "PORT_IATA": "OXQ",
   "PORT_NAME": "Oxford Rail Station",
   "LAT_DEC": 51.75361,
   "LONG_DEC": -1.27027,
   "CITY_NAME": "Oxford Rail Station"
 },
 {
   "PORT_IATA": "UUK",
   "PORT_NAME": "Ugnu-Kuparuk",
   "LAT_DEC": 70.3308,
   "LONG_DEC": -149.598,
   "CITY_NAME": "Kuparuk"
 },
 {
   "PORT_IATA": "QRZ",
   "PORT_NAME": "Breda Rail Station",
   "LAT_DEC": 51.59545,
   "LONG_DEC": 4.77982,
   "CITY_NAME": "Breda Rail Station"
 },
 {
   "PORT_IATA": "POQ",
   "PORT_NAME": "Poole Bus Station",
   "LAT_DEC": 50.71722,
   "LONG_DEC": -1.97694,
   "CITY_NAME": "Poole Bus Station"
 },
 {
   "PORT_IATA": "VLA",
   "PORT_NAME": "Vandalia Municipal",
   "LAT_DEC": 38.95,
   "LONG_DEC": -89.08333,
   "CITY_NAME": "Vandalia"
 },
 {
   "PORT_IATA": "VNC",
   "PORT_NAME": "Venice Municipal",
   "LAT_DEC": 27.06666,
   "LONG_DEC": -82.43333,
   "CITY_NAME": "Venice"
 },
 {
   "PORT_IATA": "CRP",
   "PORT_NAME": "Corpus Christi International Apt",
   "LAT_DEC": 27.77027,
   "LONG_DEC": -97.50111,
   "CITY_NAME": "Corpus Christi"
 },
 {
   "PORT_IATA": "CGS",
   "PORT_NAME": "College Park",
   "LAT_DEC": 38.98055,
   "LONG_DEC": -76.92222,
   "CITY_NAME": "College Park"
 },
 {
   "PORT_IATA": "EVM",
   "PORT_NAME": "Eveleth-Virginia Municipal",
   "LAT_DEC": 47.43333,
   "LONG_DEC": -92.5,
   "CITY_NAME": "Eveleth"
 },
 {
   "PORT_IATA": "INF",
   "PORT_NAME": "In Guezzam",
   "LAT_DEC": 19.56095,
   "LONG_DEC": 5.7513,
   "CITY_NAME": "In Guezzam"
 },
 {
   "PORT_IATA": "SEJ",
   "PORT_NAME": "Salamanca Rail Station",
   "LAT_DEC": 40.97166,
   "LONG_DEC": -5.64833,
   "CITY_NAME": "Salamanca Rail Station"
 },
 {
   "PORT_IATA": "KLF",
   "PORT_NAME": "Grabtsevo",
   "LAT_DEC": 54.54855,
   "LONG_DEC": 36.37147,
   "CITY_NAME": "Kaluga"
 },
 {
   "PORT_IATA": "RNW",
   "PORT_NAME": "Ringwood Bus Station",
   "LAT_DEC": 50.84694,
   "LONG_DEC": -1.79138,
   "CITY_NAME": "Ringwood Bus Station"
 },
 {
   "PORT_IATA": "USJ",
   "PORT_NAME": "Usharal",
   "LAT_DEC": 46.19074,
   "LONG_DEC": 80.82986,
   "CITY_NAME": "Usharal"
 },
 {
   "PORT_IATA": "LLX",
   "PORT_NAME": "Caledonia County",
   "LAT_DEC": 44.56916,
   "LONG_DEC": -72.01805,
   "CITY_NAME": "Lyndonville"
 },
 {
   "PORT_IATA": "LMZ",
   "PORT_NAME": "Palma",
   "LAT_DEC": -10.76666,
   "LONG_DEC": 40.48333,
   "CITY_NAME": "Palma"
 },
 {
   "PORT_IATA": "LNP",
   "PORT_NAME": "Lonesome Pine",
   "LAT_DEC": 36.98333,
   "LONG_DEC": -82.56666,
   "CITY_NAME": "Wise"
 },
 {
   "PORT_IATA": "LOY",
   "PORT_NAME": "Loyengalani",
   "LAT_DEC": 2.76343,
   "LONG_DEC": 36.71829,
   "CITY_NAME": "Loyengalani"
 },
 {
   "PORT_IATA": "LSN",
   "PORT_NAME": "Los Banos Municipal",
   "LAT_DEC": 37.06666,
   "LONG_DEC": -120.85,
   "CITY_NAME": "Los Banos"
 },
 {
   "PORT_IATA": "LTM",
   "PORT_NAME": "Lethem",
   "LAT_DEC": 3.4,
   "LONG_DEC": -59.8,
   "CITY_NAME": "Lethem"
 },
 {
   "PORT_IATA": "LXV",
   "PORT_NAME": "Lake County",
   "LAT_DEC": 39.2203,
   "LONG_DEC": -106.317,
   "CITY_NAME": "Leadville"
 },
 {
   "PORT_IATA": "TTY",
   "PORT_NAME": "Taunton Bus Station",
   "LAT_DEC": 51.01527,
   "LONG_DEC": -3.10583,
   "CITY_NAME": "Taunton Bus Station"
 },
 {
   "PORT_IATA": "XJO",
   "PORT_NAME": "Soria Bus Station",
   "LAT_DEC": 41.76694,
   "LONG_DEC": -2.47944,
   "CITY_NAME": "Soria Bus Station"
 },
 {
   "PORT_IATA": "MIT",
   "PORT_NAME": "Minter Field",
   "LAT_DEC": 35.5,
   "LONG_DEC": -119.26666,
   "CITY_NAME": "Shafter"
 },
 {
   "PORT_IATA": "MIV",
   "PORT_NAME": "Millville Municipal",
   "LAT_DEC": 39.36666,
   "LONG_DEC": -75.08333,
   "CITY_NAME": "Millville"
 },
 {
   "PORT_IATA": "MJU",
   "PORT_NAME": "Tampa Padang",
   "LAT_DEC": -2.5883,
   "LONG_DEC": 119.02762,
   "CITY_NAME": "Mamuju"
 },
 {
   "PORT_IATA": "MLT",
   "PORT_NAME": "Millinocket Municipal",
   "LAT_DEC": 45.64929,
   "LONG_DEC": -68.69195,
   "CITY_NAME": "Millinocket"
 },
 {
   "PORT_IATA": "MPR",
   "PORT_NAME": "McPherson",
   "LAT_DEC": 38.35,
   "LONG_DEC": -97.68333,
   "CITY_NAME": "McPherson"
 },
 {
   "PORT_IATA": "MQY",
   "PORT_NAME": "Smyrna",
   "LAT_DEC": 36.00965,
   "LONG_DEC": -86.52052,
   "CITY_NAME": "Smyrna"
 },
 {
   "PORT_IATA": "MUT",
   "PORT_NAME": "Muscatine Municipal",
   "LAT_DEC": 41.36624,
   "LONG_DEC": -91.14592,
   "CITY_NAME": "Muscatine"
 },
 {
   "PORT_IATA": "MWK",
   "PORT_NAME": "Tarempa",
   "LAT_DEC": 3.29991,
   "LONG_DEC": 106.26536,
   "CITY_NAME": "Matak"
 },
 {
   "PORT_IATA": "MYK",
   "PORT_NAME": "May Creek",
   "LAT_DEC": 61.36666,
   "LONG_DEC": -142.68333,
   "CITY_NAME": "May Creek"
 },
 {
   "PORT_IATA": "WNC",
   "PORT_NAME": "Winchester Bus Station",
   "LAT_DEC": 51.0622,
   "LONG_DEC": -1.30996,
   "CITY_NAME": "Winchester Bus Station"
 },
 {
   "PORT_IATA": "NDC",
   "PORT_NAME": "Nanded",
   "LAT_DEC": 19.18171,
   "LONG_DEC": 77.32254,
   "CITY_NAME": "Nanded"
 },
 {
   "PORT_IATA": "OVE",
   "PORT_NAME": "Oroville Municipal",
   "LAT_DEC": 39.48333,
   "LONG_DEC": -121.63333,
   "CITY_NAME": "Oroville"
 },
 {
   "PORT_IATA": "PAO",
   "PORT_NAME": "Santa Clara County",
   "LAT_DEC": 37.46155,
   "LONG_DEC": -122.11557,
   "CITY_NAME": "Palo Alto"
 },
 {
   "PORT_IATA": "PEQ",
   "PORT_NAME": "Pecos Municipal",
   "LAT_DEC": 31.38811,
   "LONG_DEC": -103.51444,
   "CITY_NAME": "Pecos"
 },
 {
   "PORT_IATA": "PGH",
   "PORT_NAME": "Pantnagar",
   "LAT_DEC": 29.03193,
   "LONG_DEC": 79.4736,
   "CITY_NAME": "Pantnagar"
 },
 {
   "PORT_IATA": "CDC",
   "PORT_NAME": "Cedar City Regional",
   "LAT_DEC": 37.70083,
   "LONG_DEC": -113.09888,
   "CITY_NAME": "Cedar City"
 },
 {
   "PORT_IATA": "KJH",
   "PORT_NAME": "Kai Li",
   "LAT_DEC": 26.97194,
   "LONG_DEC": 107.9875,
   "CITY_NAME": "Huang Ping"
 },
 {
   "PORT_IATA": "PTT",
   "PORT_NAME": "Pratt Regional",
   "LAT_DEC": 37.7,
   "LONG_DEC": -98.75,
   "CITY_NAME": "Pratt"
 },
 {
   "PORT_IATA": "VBT",
   "PORT_NAME": "Vigo Bus Station",
   "LAT_DEC": 42.22416,
   "LONG_DEC": -8.70944,
   "CITY_NAME": "Vigo Bus Station"
 },
 {
   "PORT_IATA": "WMC",
   "PORT_NAME": "Winnemucca Municipal",
   "LAT_DEC": 40.96666,
   "LONG_DEC": -117.73333,
   "CITY_NAME": "Winnemucca"
 },
 {
   "PORT_IATA": "WTZ",
   "PORT_NAME": "Whitianga",
   "LAT_DEC": -36.83333,
   "LONG_DEC": 175.7,
   "CITY_NAME": "Whitianga"
 },
 {
   "PORT_IATA": "WVI",
   "PORT_NAME": "Watsonville Municipal",
   "LAT_DEC": 36.93399,
   "LONG_DEC": -121.79188,
   "CITY_NAME": "Watsonville"
 },
 {
   "PORT_IATA": "XDY",
   "PORT_NAME": "Sudbury Jct Rail Station",
   "LAT_DEC": 46.61943,
   "LONG_DEC": -80.80277,
   "CITY_NAME": "Sudbury"
 },
 {
   "PORT_IATA": "YSB",
   "PORT_NAME": "Sudbury Airport",
   "LAT_DEC": 46.62499,
   "LONG_DEC": -80.79888,
   "CITY_NAME": "Sudbury"
 },
 {
   "PORT_IATA": "FRD",
   "PORT_NAME": "Friday Harbor Airport",
   "LAT_DEC": 48.52534,
   "LONG_DEC": -123.02592,
   "CITY_NAME": "Friday Harbor"
 },
 {
   "PORT_IATA": "YDV",
   "PORT_NAME": "Bloodvein",
   "LAT_DEC": 51.75,
   "LONG_DEC": -96.73333,
   "CITY_NAME": "Bloodvein"
 },
 {
   "PORT_IATA": "YOK",
   "PORT_NAME": "Yokohama",
   "LAT_DEC": 35.46666,
   "LONG_DEC": 139.63333,
   "CITY_NAME": "Yokohama"
 },
 {
   "PORT_IATA": "YVG",
   "PORT_NAME": "Vermillion",
   "LAT_DEC": 53.36666,
   "LONG_DEC": -110.85,
   "CITY_NAME": "Vermillion"
 },
 {
   "PORT_IATA": "KMW",
   "PORT_NAME": "Kostroma",
   "LAT_DEC": 57.75,
   "LONG_DEC": 40.93333,
   "CITY_NAME": "Kostroma"
 },
 {
   "PORT_IATA": "YXS",
   "PORT_NAME": "Prince George Airport",
   "LAT_DEC": 53.8818,
   "LONG_DEC": -122.67562,
   "CITY_NAME": "Prince George"
 },
 {
   "PORT_IATA": "ILQ",
   "PORT_NAME": "Ilo",
   "LAT_DEC": -17.695,
   "LONG_DEC": -71.344,
   "CITY_NAME": "Ilo"
 },
 {
   "PORT_IATA": "MYP",
   "PORT_NAME": "Mary",
   "LAT_DEC": 37.62298,
   "LONG_DEC": 61.89573,
   "CITY_NAME": "Mary"
 },
 {
   "PORT_IATA": "KEF",
   "PORT_NAME": "Reykjavik Keflavik International Apt",
   "LAT_DEC": 63.985,
   "LONG_DEC": -22.60555,
   "CITY_NAME": "Reykjavik"
 },
 {
   "PORT_IATA": "RKV",
   "PORT_NAME": "Reykjavik Apt",
   "LAT_DEC": 64.13,
   "LONG_DEC": -21.94055,
   "CITY_NAME": "Reykjavik"
 },
 {
   "PORT_IATA": "XZL",
   "PORT_NAME": "Edmonton Rail Station",
   "LAT_DEC": 53.58213,
   "LONG_DEC": -113.52571,
   "CITY_NAME": "Edmonton"
 },
 {
   "PORT_IATA": "YEG",
   "PORT_NAME": "Edmonton International Apt",
   "LAT_DEC": 53.30731,
   "LONG_DEC": -113.58594,
   "CITY_NAME": "Edmonton"
 },
 {
   "PORT_IATA": "RUH",
   "PORT_NAME": "Riyadh King Khalid Intl",
   "LAT_DEC": 24.95777,
   "LONG_DEC": 46.69888,
   "CITY_NAME": "Riyadh"
 },
 {
   "PORT_IATA": "XDH",
   "PORT_NAME": "Jasper Rail Station",
   "LAT_DEC": 52.87637,
   "LONG_DEC": -118.07877,
   "CITY_NAME": "Jasper"
 },
 {
   "PORT_IATA": "TNE",
   "PORT_NAME": "Tanegashima",
   "LAT_DEC": 30.54525,
   "LONG_DEC": 130.95141,
   "CITY_NAME": "Tanegashima"
 },
 {
   "PORT_IATA": "PAC",
   "PORT_NAME": "Panama City Marcos A.Gelabert Intl",
   "LAT_DEC": 8.97332,
   "LONG_DEC": -79.55555,
   "CITY_NAME": "Panama City"
 },
 {
   "PORT_IATA": "PTY",
   "PORT_NAME": "Panama City Tocumen International",
   "LAT_DEC": 9.07138,
   "LONG_DEC": -79.38333,
   "CITY_NAME": "Panama City"
 },
 {
   "PORT_IATA": "BWI",
   "PORT_NAME": "Baltimore Washington International Apt",
   "LAT_DEC": 39.17527,
   "LONG_DEC": -76.66832,
   "CITY_NAME": "Baltimore"
 },
 {
   "PORT_IATA": "MTN",
   "PORT_NAME": "Baltimore Martin State",
   "LAT_DEC": 39.32602,
   "LONG_DEC": -76.41388,
   "CITY_NAME": "Baltimore"
 },
 {
   "PORT_IATA": "ZBP",
   "PORT_NAME": "Baltimore Penn Rail Station",
   "LAT_DEC": 39.30733,
   "LONG_DEC": -76.61564,
   "CITY_NAME": "Baltimore"
 },
 {
   "PORT_IATA": "XEF",
   "PORT_NAME": "Winnipeg Union Rail Station",
   "LAT_DEC": 49.88901,
   "LONG_DEC": -97.13434,
   "CITY_NAME": "Winnipeg"
 },
 {
   "PORT_IATA": "YWG",
   "PORT_NAME": "Winnipeg J.A. Richardson Intl Apt",
   "LAT_DEC": 49.91,
   "LONG_DEC": -97.23999,
   "CITY_NAME": "Winnipeg"
 },
 {
   "PORT_IATA": "HNY",
   "PORT_NAME": "Bajialing",
   "LAT_DEC": 26.90547,
   "LONG_DEC": 112.6281,
   "CITY_NAME": "Hengyang"
 },
 {
   "PORT_IATA": "LBP",
   "PORT_NAME": "Long Banga",
   "LAT_DEC": 3.20212,
   "LONG_DEC": 115.40195,
   "CITY_NAME": "Long Banga"
 },
 {
   "PORT_IATA": "LUL",
   "PORT_NAME": "Hattiesburg/Laurel Hesler-Noble Field",
   "LAT_DEC": 31.66666,
   "LONG_DEC": -89.16666,
   "CITY_NAME": "Hattiesburg/Laurel"
 },
 {
   "PORT_IATA": "PIB",
   "PORT_NAME": "Hattiesburg/Laurel Regional Apt",
   "LAT_DEC": 31.46721,
   "LONG_DEC": -89.33694,
   "CITY_NAME": "Hattiesburg/Laurel"
 },
 {
   "PORT_IATA": "FLX",
   "PORT_NAME": "Fallon Municipal Apt",
   "LAT_DEC": 39.46666,
   "LONG_DEC": -118.76943,
   "CITY_NAME": "Fallon"
 },
 {
   "PORT_IATA": "SHI",
   "PORT_NAME": "Shimojishima",
   "LAT_DEC": 24.82712,
   "LONG_DEC": 125.14478,
   "CITY_NAME": "Shimojishima"
 },
 {
   "PORT_IATA": "YBL",
   "PORT_NAME": "Campbell River Municipal Apt",
   "LAT_DEC": 49.95083,
   "LONG_DEC": -125.27054,
   "CITY_NAME": "Campbell River"
 },
 {
   "PORT_IATA": "ELA",
   "PORT_NAME": "Eagle Lake",
   "LAT_DEC": 29.58333,
   "LONG_DEC": -96.33333,
   "CITY_NAME": "Eagle Lake"
 },
 {
   "PORT_IATA": "OBY",
   "PORT_NAME": "Ittoqqortoormiit",
   "LAT_DEC": 70.48818,
   "LONG_DEC": -21.9716,
   "CITY_NAME": "Ittoqqortoormiit"
 },
 {
   "PORT_IATA": "EIS",
   "PORT_NAME": "Tortola Terrence B Lettsome",
   "LAT_DEC": 18.44471,
   "LONG_DEC": -64.54305,
   "CITY_NAME": "Tortola"
 },
 {
   "PORT_IATA": "TIW",
   "PORT_NAME": "Tacoma Narrows",
   "LAT_DEC": 47.26638,
   "LONG_DEC": -122.56666,
   "CITY_NAME": "Tacoma"
 },
 {
   "PORT_IATA": "TCM",
   "PORT_NAME": "Tacoma McChord Field",
   "LAT_DEC": 47.13787,
   "LONG_DEC": -122.47642,
   "CITY_NAME": "Tacoma"
 },
 {
   "PORT_IATA": "UVF",
   "PORT_NAME": "Hewanorra Intl",
   "LAT_DEC": 13.73333,
   "LONG_DEC": -60.9525,
   "CITY_NAME": "St Lucia"
 },
 {
   "PORT_IATA": "SLU",
   "PORT_NAME": "St Lucia George F.L. Charles Apt",
   "LAT_DEC": 14.02027,
   "LONG_DEC": -60.99305,
   "CITY_NAME": "St Lucia"
 },
 {
   "PORT_IATA": "LDJ",
   "PORT_NAME": "Linden",
   "LAT_DEC": 40.6175,
   "LONG_DEC": -74.24433,
   "CITY_NAME": "Linden"
 },
 {
   "PORT_IATA": "LCZ",
   "PORT_NAME": "Lecce Rail Station",
   "LAT_DEC": 40.34555,
   "LONG_DEC": 18.16555,
   "CITY_NAME": "Lecce Rail Station"
 },
 {
   "PORT_IATA": "LTZ",
   "PORT_NAME": "Lamezia Terme Central Rail Station",
   "LAT_DEC": 38.92138,
   "LONG_DEC": 16.25527,
   "CITY_NAME": "Lamezia Terme Central Rail Station"
 },
 {
   "PORT_IATA": "VCP",
   "PORT_NAME": "Sao Paulo Viracopos-Campinas Intl Apt",
   "LAT_DEC": -23.00805,
   "LONG_DEC": -47.13471,
   "CITY_NAME": "Sao Paulo"
 },
 {
   "PORT_IATA": "CGH",
   "PORT_NAME": "Sao Paulo Congonhas Apt",
   "LAT_DEC": -23.62666,
   "LONG_DEC": -46.65805,
   "CITY_NAME": "Sao Paulo"
 },
 {
   "PORT_IATA": "GRU",
   "PORT_NAME": "Sao Paulo Guarulhos Intl Apt",
   "LAT_DEC": -23.43193,
   "LONG_DEC": -46.46943,
   "CITY_NAME": "Sao Paulo"
 },
 {
   "PORT_IATA": "ISS",
   "PORT_NAME": "Wiscasset",
   "LAT_DEC": 43.96184,
   "LONG_DEC": -69.7118,
   "CITY_NAME": "Wiscasset"
 },
 {
   "PORT_IATA": "NNR",
   "PORT_NAME": "Spiddal",
   "LAT_DEC": 53.23055,
   "LONG_DEC": -9.46777,
   "CITY_NAME": "Spiddal"
 },
 {
   "PORT_IATA": "LDZ",
   "PORT_NAME": "Londolozi",
   "LAT_DEC": -24.8079,
   "LONG_DEC": 31.50407,
   "CITY_NAME": "Londolozi"
 },
 {
   "PORT_IATA": "CBI",
   "PORT_NAME": "Cape Barren Island",
   "LAT_DEC": -40.39019,
   "LONG_DEC": 148.01508,
   "CITY_NAME": "Cape Barren Island"
 },
 {
   "PORT_IATA": "PDB",
   "PORT_NAME": "Pedro Bay",
   "LAT_DEC": 59.79577,
   "LONG_DEC": -154.12361,
   "CITY_NAME": "Pedro Bay"
 },
 {
   "PORT_IATA": "ZYI",
   "PORT_NAME": "Xinzhou",
   "LAT_DEC": 27.81111,
   "LONG_DEC": 107.2461,
   "CITY_NAME": "Zunyi"
 },
 {
   "PORT_IATA": "MLF",
   "PORT_NAME": "Milford Municipal",
   "LAT_DEC": 38.43333,
   "LONG_DEC": -113.01666,
   "CITY_NAME": "Milford"
 },
 {
   "PORT_IATA": "MDD",
   "PORT_NAME": "Midland Airpark",
   "LAT_DEC": 31.9361,
   "LONG_DEC": -102.2,
   "CITY_NAME": "Midland"
 },
 {
   "PORT_IATA": "MAF",
   "PORT_NAME": "Midland International Apt",
   "LAT_DEC": 31.94249,
   "LONG_DEC": -102.20194,
   "CITY_NAME": "Midland"
 },
 {
   "PORT_IATA": "LOK",
   "PORT_NAME": "Lodwar",
   "LAT_DEC": 3.12142,
   "LONG_DEC": 35.6054,
   "CITY_NAME": "Lodwar"
 },
 {
   "PORT_IATA": "LPC",
   "PORT_NAME": "Lompoc Apt",
   "LAT_DEC": 34.66666,
   "LONG_DEC": -120.46943,
   "CITY_NAME": "Lompoc"
 },
 {
   "PORT_IATA": "YHZ",
   "PORT_NAME": "Halifax Stanfield International Apt",
   "LAT_DEC": 44.88668,
   "LONG_DEC": -63.51251,
   "CITY_NAME": "Halifax"
 },
 {
   "PORT_IATA": "XEA",
   "PORT_NAME": "Vancouver Rail Station",
   "LAT_DEC": 49.2714,
   "LONG_DEC": -123.09808,
   "CITY_NAME": "Vancouver"
 },
 {
   "PORT_IATA": "YXX",
   "PORT_NAME": "Vancouver Abbotsford Intl Apt",
   "LAT_DEC": 49.02527,
   "LONG_DEC": -122.36055,
   "CITY_NAME": "Vancouver"
 },
 {
   "PORT_IATA": "YVR",
   "PORT_NAME": "Vancouver International Apt",
   "LAT_DEC": 49.19388,
   "LONG_DEC": -123.18444,
   "CITY_NAME": "Vancouver"
 },
 {
   "PORT_IATA": "CXH",
   "PORT_NAME": "Vancouver Coal Harbour SPB",
   "LAT_DEC": 49.29165,
   "LONG_DEC": -123.12118,
   "CITY_NAME": "Vancouver"
 },
 {
   "PORT_IATA": "YGP",
   "PORT_NAME": "Gaspe",
   "LAT_DEC": 48.77527,
   "LONG_DEC": -64.4786,
   "CITY_NAME": "Gaspe"
 },
 {
   "PORT_IATA": "XDQ",
   "PORT_NAME": "London Rail Station",
   "LAT_DEC": 43.0361,
   "LONG_DEC": -81.15277,
   "CITY_NAME": "London"
 },
 {
   "PORT_IATA": "YXU",
   "PORT_NAME": "London International",
   "LAT_DEC": 43.03555,
   "LONG_DEC": -81.15388,
   "CITY_NAME": "London"
 },
 {
   "PORT_IATA": "NON",
   "PORT_NAME": "Nonouti",
   "LAT_DEC": -0.63969,
   "LONG_DEC": 174.4279,
   "CITY_NAME": "Nonouti"
 },
 {
   "PORT_IATA": "BTN",
   "PORT_NAME": "Marlboro Co. Jetport",
   "LAT_DEC": 34.61666,
   "LONG_DEC": -79.68333,
   "CITY_NAME": "Bennettsville"
 },
 {
   "PORT_IATA": "ZPH",
   "PORT_NAME": "Zephyrhills Municipal",
   "LAT_DEC": 28.23333,
   "LONG_DEC": -82.16666,
   "CITY_NAME": "Zephyrhills"
 },
 {
   "PORT_IATA": "NAM",
   "PORT_NAME": "Namlea",
   "LAT_DEC": -3.23696,
   "LONG_DEC": 127.10024,
   "CITY_NAME": "Namlea"
 },
 {
   "PORT_IATA": "CHG",
   "PORT_NAME": "Chaoyang",
   "LAT_DEC": 41.54136,
   "LONG_DEC": 120.4338,
   "CITY_NAME": "Chaoyang"
 },
 {
   "PORT_IATA": "ABU",
   "PORT_NAME": "Haliwen",
   "LAT_DEC": -9.07479,
   "LONG_DEC": 124.90377,
   "CITY_NAME": "Atambua"
 },
 {
   "PORT_IATA": "AUN",
   "PORT_NAME": "Auburn Municipal",
   "LAT_DEC": 38.9,
   "LONG_DEC": -121.06666,
   "CITY_NAME": "Auburn"
 },
 {
   "PORT_IATA": "AKL",
   "PORT_NAME": "Auckland International Apt",
   "LAT_DEC": -37.00972,
   "LONG_DEC": 174.79166,
   "CITY_NAME": "Auckland"
 },
 {
   "PORT_IATA": "ATL",
   "PORT_NAME": "Atlanta Hartsfield-Jackson Intl Apt",
   "LAT_DEC": 33.63666,
   "LONG_DEC": -84.42804,
   "CITY_NAME": "Atlanta"
 },
 {
   "PORT_IATA": "PDK",
   "PORT_NAME": "Atlanta De Kalb-Peachtree",
   "LAT_DEC": 33.88333,
   "LONG_DEC": -84.3,
   "CITY_NAME": "Atlanta"
 },
 {
   "PORT_IATA": "FTY",
   "PORT_NAME": "Atlanta Fulton County Apt",
   "LAT_DEC": 33.77822,
   "LONG_DEC": -84.52675,
   "CITY_NAME": "Atlanta"
 },
 {
   "PORT_IATA": "WDH",
   "PORT_NAME": "Windhoek Hosea Kutako International",
   "LAT_DEC": -22.47999,
   "LONG_DEC": 17.47082,
   "CITY_NAME": "Windhoek"
 },
 {
   "PORT_IATA": "ERS",
   "PORT_NAME": "Windhoek Eros Apt",
   "LAT_DEC": -22.61222,
   "LONG_DEC": 17.08054,
   "CITY_NAME": "Windhoek"
 },
 {
   "PORT_IATA": "SKX",
   "PORT_NAME": "Saransk",
   "LAT_DEC": 54.12583,
   "LONG_DEC": 45.2131,
   "CITY_NAME": "Saransk"
 },
 {
   "PORT_IATA": "YZA",
   "PORT_NAME": "Ashcroft",
   "LAT_DEC": 50.72095,
   "LONG_DEC": -121.27949,
   "CITY_NAME": "Ashcroft"
 },
 {
   "PORT_IATA": "AMM",
   "PORT_NAME": "Amman Queen Alia International Apt",
   "LAT_DEC": 31.72249,
   "LONG_DEC": 35.99333,
   "CITY_NAME": "Amman"
 },
 {
   "PORT_IATA": "THD",
   "PORT_NAME": "Tho Xuan",
   "LAT_DEC": 19.9025,
   "LONG_DEC": 105.46916,
   "CITY_NAME": "Thanh Hoe"
 },
 {
   "PORT_IATA": "FNA",
   "PORT_NAME": "Freetown Lungi International Apt",
   "LAT_DEC": 8.61638,
   "LONG_DEC": -13.19555,
   "CITY_NAME": "Freetown"
 },
 {
   "PORT_IATA": "CWB",
   "PORT_NAME": "Curitiba Afonso Pena Intl",
   "LAT_DEC": -25.5286,
   "LONG_DEC": -49.17582,
   "CITY_NAME": "Curitiba"
 },
 {
   "PORT_IATA": "MSQ",
   "PORT_NAME": "Minsk International Apt",
   "LAT_DEC": 53.88249,
   "LONG_DEC": 28.03082,
   "CITY_NAME": "Minsk"
 },
 {
   "PORT_IATA": "DIK",
   "PORT_NAME": "T. Roosevelt Regional",
   "LAT_DEC": 46.8,
   "LONG_DEC": -102.8,
   "CITY_NAME": "Dickinson"
 },
 {
   "PORT_IATA": "LND",
   "PORT_NAME": "Lander",
   "LAT_DEC": 42.8,
   "LONG_DEC": -108.67499,
   "CITY_NAME": "Lander"
 },
 {
   "PORT_IATA": "BET",
   "PORT_NAME": "Bethel Apt",
   "LAT_DEC": 60.77971,
   "LONG_DEC": -161.83805,
   "CITY_NAME": "Bethel"
 },
 {
   "PORT_IATA": "RCY",
   "PORT_NAME": "Port Nelson",
   "LAT_DEC": 23.65139,
   "LONG_DEC": -74.845,
   "CITY_NAME": "Rum Cay"
 },
 {
   "PORT_IATA": "RWL",
   "PORT_NAME": "Rawlins Municipal (Harvey Fld)",
   "LAT_DEC": 41.8,
   "LONG_DEC": -107.2,
   "CITY_NAME": "Rawlins"
 },
 {
   "PORT_IATA": "NEW",
   "PORT_NAME": "New Orleans Lakefront Apt",
   "LAT_DEC": 30.04317,
   "LONG_DEC": -90.02977,
   "CITY_NAME": "New Orleans"
 },
 {
   "PORT_IATA": "MSY",
   "PORT_NAME": "New Orleans Louis Armstrong Intl Apt",
   "LAT_DEC": 29.99333,
   "LONG_DEC": -90.25805,
   "CITY_NAME": "New Orleans"
 },
 {
   "PORT_IATA": "ENV",
   "PORT_NAME": "Wendover",
   "LAT_DEC": 40.73333,
   "LONG_DEC": -114.03333,
   "CITY_NAME": "Wendover"
 },
 {
   "PORT_IATA": "JPR",
   "PORT_NAME": "Jose Coleto",
   "LAT_DEC": -10.87078,
   "LONG_DEC": -61.84674,
   "CITY_NAME": "Ji-Parana"
 },
 {
   "PORT_IATA": "NDU",
   "PORT_NAME": "Rundu",
   "LAT_DEC": -17.95593,
   "LONG_DEC": 19.7227,
   "CITY_NAME": "Rundu"
 },
 {
   "PORT_IATA": "NYU",
   "PORT_NAME": "Bagan/Nyaung-U",
   "LAT_DEC": 21.17743,
   "LONG_DEC": 94.93036,
   "CITY_NAME": "Bagan/Nyaung-U"
 },
 {
   "PORT_IATA": "RNJ",
   "PORT_NAME": "Yoron",
   "LAT_DEC": 27.04384,
   "LONG_DEC": 128.4017,
   "CITY_NAME": "Yoron"
 },
 {
   "PORT_IATA": "RUP",
   "PORT_NAME": "Rupsi",
   "LAT_DEC": 26.1411,
   "LONG_DEC": 89.90658,
   "CITY_NAME": "Rupsi"
 },
 {
   "PORT_IATA": "SRV",
   "PORT_NAME": "Stony River",
   "LAT_DEC": 61.78908,
   "LONG_DEC": -156.58899,
   "CITY_NAME": "Stony River"
 },
 {
   "PORT_IATA": "LZB",
   "PORT_NAME": "Leon Bus Station",
   "LAT_DEC": 42.59194,
   "LONG_DEC": -5.57833,
   "CITY_NAME": "Leon Bus Station"
 },
 {
   "PORT_IATA": "WBW",
   "PORT_NAME": "Wilkes-Barre/Scranton Wyoming Valley",
   "LAT_DEC": 41.23333,
   "LONG_DEC": -75.88333,
   "CITY_NAME": "Wilkes-Barre/Scranton"
 },
 {
   "PORT_IATA": "AVP",
   "PORT_NAME": "Wilkes-Barre/Scranton International Apt",
   "LAT_DEC": 41.3386,
   "LONG_DEC": -75.72332,
   "CITY_NAME": "Wilkes-Barre/Scranton"
 },
 {
   "PORT_IATA": "CSA",
   "PORT_NAME": "Colonsay",
   "LAT_DEC": 56.05752,
   "LONG_DEC": -6.24294,
   "CITY_NAME": "Colonsay"
 },
 {
   "PORT_IATA": "PVS",
   "PORT_NAME": "Provideniya Bay",
   "LAT_DEC": 64.37954,
   "LONG_DEC": -173.24249,
   "CITY_NAME": "Provideniya"
 },
 {
   "PORT_IATA": "TSU",
   "PORT_NAME": "Tabiteuea South",
   "LAT_DEC": -1.4745,
   "LONG_DEC": 175.06452,
   "CITY_NAME": "Tabiteuea South"
 },
 {
   "PORT_IATA": "KNK",
   "PORT_NAME": "Kokhanok",
   "LAT_DEC": 59.43329,
   "LONG_DEC": -154.80359,
   "CITY_NAME": "Kokhanok"
 },
 {
   "PORT_IATA": "RBK",
   "PORT_NAME": "French Valley",
   "LAT_DEC": 33.57689,
   "LONG_DEC": -117.12902,
   "CITY_NAME": "Murrieta/Temecula"
 },
 {
   "PORT_IATA": "RMS",
   "PORT_NAME": "Ramstein Air Base",
   "LAT_DEC": 49.43694,
   "LONG_DEC": 7.60027,
   "CITY_NAME": "Ramstein"
 },
 {
   "PORT_IATA": "OGL",
   "PORT_NAME": "Ogle",
   "LAT_DEC": 6.80677,
   "LONG_DEC": -58.10647,
   "CITY_NAME": "Georgetown"
 },
 {
   "PORT_IATA": "EKX",
   "PORT_NAME": "Regional-Addington Fld",
   "LAT_DEC": 37.7,
   "LONG_DEC": -85.86666,
   "CITY_NAME": "Elizabethtown"
 },
 {
   "PORT_IATA": "BQW",
   "PORT_NAME": "Balgo Hill",
   "LAT_DEC": -20.13333,
   "LONG_DEC": 127.8,
   "CITY_NAME": "Balgo Hill"
 },
 {
   "PORT_IATA": "NCN",
   "PORT_NAME": "Chenega Bay",
   "LAT_DEC": 60.0794,
   "LONG_DEC": -147.99491,
   "CITY_NAME": "Chenega"
 },
 {
   "PORT_IATA": "TEK",
   "PORT_NAME": "Tatitlek",
   "LAT_DEC": 60.87134,
   "LONG_DEC": -146.68951,
   "CITY_NAME": "Tatitlek"
 },
 {
   "PORT_IATA": "RHD",
   "PORT_NAME": "Termas de Rio Hondo",
   "LAT_DEC": -27.47359,
   "LONG_DEC": -64.90649,
   "CITY_NAME": "Termas de Rio Hondo"
 },
 {
   "PORT_IATA": "FDY",
   "PORT_NAME": "Findlay",
   "LAT_DEC": 41.01666,
   "LONG_DEC": -83.66666,
   "CITY_NAME": "Findlay"
 },
 {
   "PORT_IATA": "FLP",
   "PORT_NAME": "Marion County Regional",
   "LAT_DEC": 36.3,
   "LONG_DEC": -92.58333,
   "CITY_NAME": "Flippin"
 },
 {
   "PORT_IATA": "JGD",
   "PORT_NAME": "Jiagedaqi",
   "LAT_DEC": 50.37783,
   "LONG_DEC": 124.11552,
   "CITY_NAME": "Jiagedaqi"
 },
 {
   "PORT_IATA": "YFJ",
   "PORT_NAME": "Snare Lake",
   "LAT_DEC": 64.19055,
   "LONG_DEC": -114.07554,
   "CITY_NAME": "Snare Lake"
 },
 {
   "PORT_IATA": "SQL",
   "PORT_NAME": "San Carlos",
   "LAT_DEC": 37.51257,
   "LONG_DEC": -122.25041,
   "CITY_NAME": "San Carlos"
 },
 {
   "PORT_IATA": "WJF",
   "PORT_NAME": "General William J Fox Apt",
   "LAT_DEC": 34.7409,
   "LONG_DEC": -118.21853,
   "CITY_NAME": "Lancaster"
 },
 {
   "PORT_IATA": "RWF",
   "PORT_NAME": "Redwood Falls Municipal",
   "LAT_DEC": 44.53333,
   "LONG_DEC": -95.11666,
   "CITY_NAME": "Redwood Falls"
 },
 {
   "PORT_IATA": "ZVR",
   "PORT_NAME": "Hannover Hbf Rail Station",
   "LAT_DEC": 52.377,
   "LONG_DEC": 9.74168,
   "CITY_NAME": "Hannover"
 },
 {
   "PORT_IATA": "HAJ",
   "PORT_NAME": "Hannover",
   "LAT_DEC": 52.46032,
   "LONG_DEC": 9.68942,
   "CITY_NAME": "Hannover"
 },
 {
   "PORT_IATA": "BJV",
   "PORT_NAME": "Bodrum Milas Airport",
   "LAT_DEC": 37.25055,
   "LONG_DEC": 27.66444,
   "CITY_NAME": "Bodrum"
 },
 {
   "PORT_IATA": "TFN",
   "PORT_NAME": "Tenerife Norte",
   "LAT_DEC": 28.48277,
   "LONG_DEC": -16.34166,
   "CITY_NAME": "Tenerife"
 },
 {
   "PORT_IATA": "TFS",
   "PORT_NAME": "Tenerife Sur Apt",
   "LAT_DEC": 28.04444,
   "LONG_DEC": -16.57249,
   "CITY_NAME": "Tenerife"
 },
 {
   "PORT_IATA": "NLO",
   "PORT_NAME": "Kinshasa N'dolo Apt",
   "LAT_DEC": -4.31666,
   "LONG_DEC": 15.31666,
   "CITY_NAME": "Kinshasa"
 },
 {
   "PORT_IATA": "FIH",
   "PORT_NAME": "Kinshasa N'Djili Intl Apt",
   "LAT_DEC": -4.38583,
   "LONG_DEC": 15.44444,
   "CITY_NAME": "Kinshasa"
 },
 {
   "PORT_IATA": "CHU",
   "PORT_NAME": "Chuathbaluk",
   "LAT_DEC": 61.58451,
   "LONG_DEC": -159.23777,
   "CITY_NAME": "Chuathbaluk"
 },
 {
   "PORT_IATA": "OSJ",
   "PORT_NAME": "Ol Seki",
   "LAT_DEC": -1.3784,
   "LONG_DEC": 35.37808,
   "CITY_NAME": "Maasai Mara"
 },
 {
   "PORT_IATA": "ABF",
   "PORT_NAME": "Abaiang",
   "LAT_DEC": 1.38157,
   "LONG_DEC": 173.14747,
   "CITY_NAME": "Abaiang"
 },
 {
   "PORT_IATA": "ADT",
   "PORT_NAME": "Ada Municipal",
   "LAT_DEC": 34.8,
   "LONG_DEC": -96.66666,
   "CITY_NAME": "Ada"
 },
 {
   "PORT_IATA": "VJI",
   "PORT_NAME": "Abingdon",
   "LAT_DEC": 36.68606,
   "LONG_DEC": -82.03521,
   "CITY_NAME": "Abingdon"
 },
 {
   "PORT_IATA": "LDX",
   "PORT_NAME": "St-Laurent du Maroni",
   "LAT_DEC": 5.48333,
   "LONG_DEC": -54.03333,
   "CITY_NAME": "St-Laurent du Maroni"
 },
 {
   "PORT_IATA": "YSG",
   "PORT_NAME": "Lutselke Snowdrift",
   "LAT_DEC": 62.41769,
   "LONG_DEC": -110.68236,
   "CITY_NAME": "Lutselke Snowdrift"
 },
 {
   "PORT_IATA": "ANV",
   "PORT_NAME": "Anvik",
   "LAT_DEC": 62.64901,
   "LONG_DEC": -160.18954,
   "CITY_NAME": "Anvik"
 },
 {
   "PORT_IATA": "WPU",
   "PORT_NAME": "Guardiamarina Zanartu",
   "LAT_DEC": -54.93106,
   "LONG_DEC": -67.62663,
   "CITY_NAME": "Puerto Williams"
 },
 {
   "PORT_IATA": "HIJ",
   "PORT_NAME": "Hiroshima",
   "LAT_DEC": 34.4361,
   "LONG_DEC": 132.91943,
   "CITY_NAME": "Hiroshima"
 },
 {
   "PORT_IATA": "NER",
   "PORT_NAME": "Chulman",
   "LAT_DEC": 56.91117,
   "LONG_DEC": 124.9029,
   "CITY_NAME": "Neryungri"
 },
 {
   "PORT_IATA": "USK",
   "PORT_NAME": "Usinsk",
   "LAT_DEC": 66.00438,
   "LONG_DEC": 57.36713,
   "CITY_NAME": "Usinsk"
 },
 {
   "PORT_IATA": "DNN",
   "PORT_NAME": "Dalton Municipal Airport",
   "LAT_DEC": 34.71666,
   "LONG_DEC": -84.86666,
   "CITY_NAME": "Dalton"
 },
 {
   "PORT_IATA": "KOM",
   "PORT_NAME": "Komo-Manda",
   "LAT_DEC": -6.14809,
   "LONG_DEC": 143.65723,
   "CITY_NAME": "Komo-Manda"
 },
 {
   "PORT_IATA": "ADS",
   "PORT_NAME": "Dallas Addison Apt",
   "LAT_DEC": 32.97016,
   "LONG_DEC": -96.83712,
   "CITY_NAME": "Dallas"
 },
 {
   "PORT_IATA": "DFW",
   "PORT_NAME": "Dallas Dallas/Fort Worth Intl Apt",
   "LAT_DEC": 32.89694,
   "LONG_DEC": -97.03805,
   "CITY_NAME": "Dallas"
 },
 {
   "PORT_IATA": "DAL",
   "PORT_NAME": "Dallas Love Field",
   "LAT_DEC": 32.84721,
   "LONG_DEC": -96.85166,
   "CITY_NAME": "Dallas"
 },
 {
   "PORT_IATA": "FDK",
   "PORT_NAME": "Frederick",
   "LAT_DEC": 39.41666,
   "LONG_DEC": -77.41666,
   "CITY_NAME": "Frederick"
 },
 {
   "PORT_IATA": "SQA",
   "PORT_NAME": "Santa Ynez",
   "LAT_DEC": 34.60697,
   "LONG_DEC": -120.07697,
   "CITY_NAME": "Santa Ynez"
 },
 {
   "PORT_IATA": "APA",
   "PORT_NAME": "Denver Centennial Airport",
   "LAT_DEC": 39.57189,
   "LONG_DEC": -104.85084,
   "CITY_NAME": "Denver"
 },
 {
   "PORT_IATA": "DEN",
   "PORT_NAME": "Denver Intl Apt",
   "LAT_DEC": 39.86166,
   "LONG_DEC": -104.67304,
   "CITY_NAME": "Denver"
 },
 {
   "PORT_IATA": "BJC",
   "PORT_NAME": "Denver Rocky Mountain Metrop.",
   "LAT_DEC": 39.90904,
   "LONG_DEC": -105.11584,
   "CITY_NAME": "Denver"
 },
 {
   "PORT_IATA": "SZE",
   "PORT_NAME": "Semera",
   "LAT_DEC": 11.78633,
   "LONG_DEC": 40.99281,
   "CITY_NAME": "Semera"
 },
 {
   "PORT_IATA": "SMO",
   "PORT_NAME": "Santa Monica Municipal",
   "LAT_DEC": 34.015,
   "LONG_DEC": -118.45166,
   "CITY_NAME": "Santa Monica"
 },
 {
   "PORT_IATA": "BYP",
   "PORT_NAME": "Barimunya",
   "LAT_DEC": -22.6725,
   "LONG_DEC": 119.16583,
   "CITY_NAME": "Barimunya"
 },
 {
   "PORT_IATA": "YAV",
   "PORT_NAME": "Miner's Bay",
   "LAT_DEC": 48.85235,
   "LONG_DEC": -123.30144,
   "CITY_NAME": "Miner's Bay"
 },
 {
   "PORT_IATA": "CYS",
   "PORT_NAME": "Cheyenne Regional Apt",
   "LAT_DEC": 41.15583,
   "LONG_DEC": -104.81194,
   "CITY_NAME": "Cheyenne"
 },
 {
   "PORT_IATA": "ISC",
   "PORT_NAME": "Isles of Scilly St Mary's Apt",
   "LAT_DEC": 49.91333,
   "LONG_DEC": -6.29166,
   "CITY_NAME": "Isles of Scilly"
 },
 {
   "PORT_IATA": "MKE",
   "PORT_NAME": "Milwaukee General Mitchell Intl Apt",
   "LAT_DEC": 42.94721,
   "LONG_DEC": -87.89666,
   "CITY_NAME": "Milwaukee"
 },
 {
   "PORT_IATA": "EBJ",
   "PORT_NAME": "Esbjerg Airport",
   "LAT_DEC": 55.52582,
   "LONG_DEC": 8.55333,
   "CITY_NAME": "Esbjerg"
 },
 {
   "PORT_IATA": "ORT",
   "PORT_NAME": "Northway",
   "LAT_DEC": 62.96114,
   "LONG_DEC": -141.92811,
   "CITY_NAME": "Northway"
 },
 {
   "PORT_IATA": "ZVJ",
   "PORT_NAME": "Abu Dhabi Bus Station",
   "LAT_DEC": 24.47,
   "LONG_DEC": 54.33,
   "CITY_NAME": "Abu Dhabi"
 },
 {
   "PORT_IATA": "AUH",
   "PORT_NAME": "Abu Dhabi International Apt",
   "LAT_DEC": 24.43304,
   "LONG_DEC": 54.65111,
   "CITY_NAME": "Abu Dhabi"
 },
 {
   "PORT_IATA": "AZI",
   "PORT_NAME": "Abu Dhabi Bateen Apt",
   "LAT_DEC": 24.42756,
   "LONG_DEC": 54.45909,
   "CITY_NAME": "Abu Dhabi"
 },
 {
   "PORT_IATA": "AUM",
   "PORT_NAME": "Austin Municipal",
   "LAT_DEC": 43.66666,
   "LONG_DEC": -92.93333,
   "CITY_NAME": "Austin"
 },
 {
   "PORT_IATA": "BML",
   "PORT_NAME": "Berlin Regional",
   "LAT_DEC": 44.48333,
   "LONG_DEC": -71.16666,
   "CITY_NAME": "Berlin"
 },
 {
   "PORT_IATA": "ADM",
   "PORT_NAME": "Ardmore Municipal Airport",
   "LAT_DEC": 34.3,
   "LONG_DEC": -97.01666,
   "CITY_NAME": "Ardmore"
 },
 {
   "PORT_IATA": "DNL",
   "PORT_NAME": "Augusta Daniel Field",
   "LAT_DEC": 33.46666,
   "LONG_DEC": -82.03333,
   "CITY_NAME": "Augusta"
 },
 {
   "PORT_IATA": "AGS",
   "PORT_NAME": "Augusta Regional (Bush Field)",
   "LAT_DEC": 33.36999,
   "LONG_DEC": -81.96444,
   "CITY_NAME": "Augusta"
 },
 {
   "PORT_IATA": "AUS",
   "PORT_NAME": "Austin-Bergstrom International Apt",
   "LAT_DEC": 30.19444,
   "LONG_DEC": -97.66999,
   "CITY_NAME": "Austin"
 },
 {
   "PORT_IATA": "CGE",
   "PORT_NAME": "Cambridge-Dorchester",
   "LAT_DEC": 38.55,
   "LONG_DEC": -76.03333,
   "CITY_NAME": "Cambridge"
 },
 {
   "PORT_IATA": "ABI",
   "PORT_NAME": "Abilene Regional Apt",
   "LAT_DEC": 32.41138,
   "LONG_DEC": -99.68193,
   "CITY_NAME": "Abilene"
 },
 {
   "PORT_IATA": "BHX",
   "PORT_NAME": "Birmingham Airport",
   "LAT_DEC": 52.45361,
   "LONG_DEC": -1.74777,
   "CITY_NAME": "Birmingham"
 },
 {
   "PORT_IATA": "LUK",
   "PORT_NAME": "Cincinnati Municipal (Lunken Fld) Apt",
   "LAT_DEC": 39.1,
   "LONG_DEC": -84.41666,
   "CITY_NAME": "Cincinnati"
 },
 {
   "PORT_IATA": "CVG",
   "PORT_NAME": "Cincinnati Northern Kentucky Intl",
   "LAT_DEC": 39.04888,
   "LONG_DEC": -84.66777,
   "CITY_NAME": "Cincinnati"
 },
 {
   "PORT_IATA": "SSI",
   "PORT_NAME": "Brunswick McKinnon St Simon Is. Apt",
   "LAT_DEC": 31.15,
   "LONG_DEC": -81.38333,
   "CITY_NAME": "Brunswick"
 },
 {
   "PORT_IATA": "BQK",
   "PORT_NAME": "Brunswick Golden Isles",
   "LAT_DEC": 31.25888,
   "LONG_DEC": -81.46638,
   "CITY_NAME": "Brunswick"
 },
 {
   "PORT_IATA": "CAE",
   "PORT_NAME": "Columbia Metropolitan Apt",
   "LAT_DEC": 33.93888,
   "LONG_DEC": -81.11943,
   "CITY_NAME": "Columbia"
 },
 {
   "PORT_IATA": "OSU",
   "PORT_NAME": "Columbus Ohio State University Apt",
   "LAT_DEC": 40.08333,
   "LONG_DEC": -83.06666,
   "CITY_NAME": "Columbus"
 },
 {
   "PORT_IATA": "LCK",
   "PORT_NAME": "Columbus Rickenbacker Intl Apt",
   "LAT_DEC": 39.81388,
   "LONG_DEC": -82.92777,
   "CITY_NAME": "Columbus"
 },
 {
   "PORT_IATA": "CMH",
   "PORT_NAME": "Columbus John Glenn Intl Apt",
   "LAT_DEC": 39.99805,
   "LONG_DEC": -82.89194,
   "CITY_NAME": "Columbus"
 },
 {
   "PORT_IATA": "COS",
   "PORT_NAME": "Colorado Springs Municipal",
   "LAT_DEC": 38.80583,
   "LONG_DEC": -104.70083,
   "CITY_NAME": "Colorado Springs"
 },
 {
   "PORT_IATA": "CSG",
   "PORT_NAME": "Columbus Apt",
   "LAT_DEC": 32.5143,
   "LONG_DEC": -84.94017,
   "CITY_NAME": "Columbus"
 },
 {
   "PORT_IATA": "EIN",
   "PORT_NAME": "Eindhoven Airport",
   "LAT_DEC": 51.45,
   "LONG_DEC": 5.37443,
   "CITY_NAME": "Eindhoven"
 },
 {
   "PORT_IATA": "UBS",
   "PORT_NAME": "Columbus Lowndes County Apt",
   "LAT_DEC": 33.5,
   "LONG_DEC": -88.41666,
   "CITY_NAME": "Columbus"
 },
 {
   "PORT_IATA": "GTR",
   "PORT_NAME": "Columbus Golden Triangle Regional Apt",
   "LAT_DEC": 33.46573,
   "LONG_DEC": -88.38075,
   "CITY_NAME": "Columbus"
 },
 {
   "PORT_IATA": "AMK",
   "PORT_NAME": "Durango Animas Air Park",
   "LAT_DEC": 37.15277,
   "LONG_DEC": -107.75277,
   "CITY_NAME": "Durango"
 },
 {
   "PORT_IATA": "DRO",
   "PORT_NAME": "Durango La Plata County Apt",
   "LAT_DEC": 37.15198,
   "LONG_DEC": -107.7536,
   "CITY_NAME": "Durango"
 },
 {
   "PORT_IATA": "DUG",
   "PORT_NAME": "Douglas/Bisbee Bisbee-Douglas Intl",
   "LAT_DEC": 31.46666,
   "LONG_DEC": -109.6,
   "CITY_NAME": "Douglas/Bisbee"
 },
 {
   "PORT_IATA": "FAI",
   "PORT_NAME": "Fairbanks International Apt",
   "LAT_DEC": 64.815,
   "LONG_DEC": -147.85638,
   "CITY_NAME": "Fairbanks"
 },
 {
   "PORT_IATA": "FNL",
   "PORT_NAME": "Fort Collins/Loveland Municipal Apt",
   "LAT_DEC": 40.45166,
   "LONG_DEC": -105.01166,
   "CITY_NAME": "Fort Collins/Loveland"
 },
 {
   "PORT_IATA": "FRA",
   "PORT_NAME": "Frankfurt International Apt",
   "LAT_DEC": 50.03304,
   "LONG_DEC": 8.57054,
   "CITY_NAME": "Frankfurt"
 },
 {
   "PORT_IATA": "HHN",
   "PORT_NAME": "Frankfurt Hahn Airport",
   "LAT_DEC": 49.9486,
   "LONG_DEC": 7.26388,
   "CITY_NAME": "Frankfurt"
 },
 {
   "PORT_IATA": "ZRB",
   "PORT_NAME": "Frankfurt Hbf Rail Station",
   "LAT_DEC": 50.10666,
   "LONG_DEC": 8.66298,
   "CITY_NAME": "Frankfurt"
 },
 {
   "PORT_IATA": "FLL",
   "PORT_NAME": "Fort Lauderdale/Hollywood Intl Apt",
   "LAT_DEC": 26.07249,
   "LONG_DEC": -80.15277,
   "CITY_NAME": "Fort Lauderdale"
 },
 {
   "PORT_IATA": "FXE",
   "PORT_NAME": "Fort Lauderdale Executive Apt",
   "LAT_DEC": 26.19596,
   "LONG_DEC": -80.16967,
   "CITY_NAME": "Fort Lauderdale"
 },
 {
   "PORT_IATA": "ZGG",
   "PORT_NAME": "Glasgow Central Rail Station",
   "LAT_DEC": 55.85922,
   "LONG_DEC": -4.25785,
   "CITY_NAME": "Glasgow"
 },
 {
   "PORT_IATA": "PIK",
   "PORT_NAME": "Glasgow Prestwick Apt",
   "LAT_DEC": 55.50944,
   "LONG_DEC": -4.58666,
   "CITY_NAME": "Glasgow"
 },
 {
   "PORT_IATA": "GLA",
   "PORT_NAME": "Glasgow International Airport",
   "LAT_DEC": 55.87193,
   "LONG_DEC": -4.43333,
   "CITY_NAME": "Glasgow"
 },
 {
   "PORT_IATA": "GDC",
   "PORT_NAME": "Greenville/Spartanburg Donaldson Fld",
   "LAT_DEC": 34.84782,
   "LONG_DEC": -82.34843,
   "CITY_NAME": "Greenville/Spartanburg"
 },
 {
   "PORT_IATA": "GSP",
   "PORT_NAME": "Greenville/Spartanburg Intl Apt",
   "LAT_DEC": 34.89555,
   "LONG_DEC": -82.21888,
   "CITY_NAME": "Greenville/Spartanburg"
 },
 {
   "PORT_IATA": "SPA",
   "PORT_NAME": "Greenville/Spartanburg Downtown Mem.",
   "LAT_DEC": 34.95,
   "LONG_DEC": -81.91666,
   "CITY_NAME": "Greenville/Spartanburg"
 },
 {
   "PORT_IATA": "GMU",
   "PORT_NAME": "Greenville/Spartanburg Downtown Apt",
   "LAT_DEC": 34.86943,
   "LONG_DEC": -82.41666,
   "CITY_NAME": "Greenville/Spartanburg"
 },
 {
   "PORT_IATA": "SBO",
   "PORT_NAME": "Salina/Gunnison",
   "LAT_DEC": 39.02916,
   "LONG_DEC": -111.83749,
   "CITY_NAME": "Salina/Gunnison"
 },
 {
   "PORT_IATA": "ELP",
   "PORT_NAME": "El Paso International Apt",
   "LAT_DEC": 31.80237,
   "LONG_DEC": -106.39818,
   "CITY_NAME": "El Paso"
 },
 {
   "PORT_IATA": "ZUG",
   "PORT_NAME": "Harrisburg Rail Station",
   "LAT_DEC": 40.26166,
   "LONG_DEC": -76.8786,
   "CITY_NAME": "Harrisburg"
 },
 {
   "PORT_IATA": "MDT",
   "PORT_NAME": "Harrisburg International Apt",
   "LAT_DEC": 40.1936,
   "LONG_DEC": -76.76333,
   "CITY_NAME": "Harrisburg"
 },
 {
   "PORT_IATA": "HAR",
   "PORT_NAME": "Harrisburg Capital City",
   "LAT_DEC": 40.26666,
   "LONG_DEC": -76.86666,
   "CITY_NAME": "Harrisburg"
 },
 {
   "PORT_IATA": "ZRT",
   "PORT_NAME": "Hartford CT Rail Station",
   "LAT_DEC": 41.76891,
   "LONG_DEC": -72.68098,
   "CITY_NAME": "Hartford"
 },
 {
   "PORT_IATA": "BDL",
   "PORT_NAME": "Hartford Bradley International Apt",
   "LAT_DEC": 41.93888,
   "LONG_DEC": -72.68333,
   "CITY_NAME": "Hartford"
 },
 {
   "PORT_IATA": "HFD",
   "PORT_NAME": "Hartford Brainard Apt",
   "LAT_DEC": 41.73721,
   "LONG_DEC": -72.64849,
   "CITY_NAME": "Hartford"
 },
 {
   "PORT_IATA": "HOB",
   "PORT_NAME": "Hobbs Lea County Regional Apt",
   "LAT_DEC": 32.6881,
   "LONG_DEC": -103.21473,
   "CITY_NAME": "Hobbs"
 },
 {
   "PORT_IATA": "HOU",
   "PORT_NAME": "Houston William P. Hobby Apt",
   "LAT_DEC": 29.64555,
   "LONG_DEC": -95.27888,
   "CITY_NAME": "Houston"
 },
 {
   "PORT_IATA": "IAH",
   "PORT_NAME": "Houston George Bush Intercont.",
   "LAT_DEC": 29.98444,
   "LONG_DEC": -95.34138,
   "CITY_NAME": "Houston"
 },
 {
   "PORT_IATA": "DWH",
   "PORT_NAME": "Houston David Wayne Hooks Mem.",
   "LAT_DEC": 30.06111,
   "LONG_DEC": -95.55444,
   "CITY_NAME": "Houston"
 },
 {
   "PORT_IATA": "EFD",
   "PORT_NAME": "Houston Ellington",
   "LAT_DEC": 29.60546,
   "LONG_DEC": -95.15526,
   "CITY_NAME": "Houston"
 },
 {
   "PORT_IATA": "IWS",
   "PORT_NAME": "Houston West Houston Apt",
   "LAT_DEC": 29.8182,
   "LONG_DEC": -95.6726,
   "CITY_NAME": "Houston"
 },
 {
   "PORT_IATA": "SGR",
   "PORT_NAME": "Houston Sugar Land Regional",
   "LAT_DEC": 29.61666,
   "LONG_DEC": -95.63333,
   "CITY_NAME": "Houston"
 },
 {
   "PORT_IATA": "HSV",
   "PORT_NAME": "Huntsville Intl-Carl T. Jones Field",
   "LAT_DEC": 34.63721,
   "LONG_DEC": -86.77499,
   "CITY_NAME": "Huntsville"
 },
 {
   "PORT_IATA": "IPL",
   "PORT_NAME": "Imperial County Apt",
   "LAT_DEC": 32.83488,
   "LONG_DEC": -115.57464,
   "CITY_NAME": "Imperial/El Centro"
 },
 {
   "PORT_IATA": "AGC",
   "PORT_NAME": "Pittsburgh Allegheny County Apt",
   "LAT_DEC": 40.35444,
   "LONG_DEC": -79.92947,
   "CITY_NAME": "Pittsburgh"
 },
 {
   "PORT_IATA": "PIT",
   "PORT_NAME": "Pittsburgh International Apt",
   "LAT_DEC": 40.49138,
   "LONG_DEC": -80.23277,
   "CITY_NAME": "Pittsburgh"
 },
 {
   "PORT_IATA": "SPB",
   "PORT_NAME": "St Thomas Charlotte Amalie SPB",
   "LAT_DEC": 18.33751,
   "LONG_DEC": -64.93949,
   "CITY_NAME": "St Thomas Island"
 },
 {
   "PORT_IATA": "STT",
   "PORT_NAME": "St Thomas Cyril E King Apt",
   "LAT_DEC": 18.33721,
   "LONG_DEC": -64.97332,
   "CITY_NAME": "St Thomas Island"
 },
 {
   "PORT_IATA": "SSB",
   "PORT_NAME": "St Croix SPB",
   "LAT_DEC": 17.74768,
   "LONG_DEC": -64.70539,
   "CITY_NAME": "St Croix Island"
 },
 {
   "PORT_IATA": "STX",
   "PORT_NAME": "St Croix Henry E. Rohlsen Apt",
   "LAT_DEC": 17.70194,
   "LONG_DEC": -64.7986,
   "CITY_NAME": "St Croix Island"
 },
 {
   "PORT_IATA": "ADQ",
   "PORT_NAME": "Kodiak Apt",
   "LAT_DEC": 57.75,
   "LONG_DEC": -152.49388,
   "CITY_NAME": "Kodiak"
 },
 {
   "PORT_IATA": "ILE",
   "PORT_NAME": "Killeen/Fort Hood Skylark Field Apt",
   "LAT_DEC": 31.08499,
   "LONG_DEC": -97.68666,
   "CITY_NAME": "Killeen/Fort Hood"
 },
 {
   "PORT_IATA": "GRK",
   "PORT_NAME": "Killeen/Fort Hood Regional/R. Gray AAF",
   "LAT_DEC": 31.06721,
   "LONG_DEC": -97.82888,
   "CITY_NAME": "Killeen/Fort Hood"
 },
 {
   "PORT_IATA": "KIN",
   "PORT_NAME": "Norman Manley Intl",
   "LAT_DEC": 17.93555,
   "LONG_DEC": -76.78749,
   "CITY_NAME": "Kingston"
 },
 {
   "PORT_IATA": "SJO",
   "PORT_NAME": "San Jose Juan Santamaria Apt",
   "LAT_DEC": 9.99388,
   "LONG_DEC": -84.20888,
   "CITY_NAME": "San Jose"
 },
 {
   "PORT_IATA": "LVS",
   "PORT_NAME": "Las Vegas Municipal",
   "LAT_DEC": 35.65,
   "LONG_DEC": -105.15,
   "CITY_NAME": "Las Vegas"
 },
 {
   "PORT_IATA": "LXN",
   "PORT_NAME": "Jim Kelly Field",
   "LAT_DEC": 40.78333,
   "LONG_DEC": -99.75,
   "CITY_NAME": "Lexington"
 },
 {
   "PORT_IATA": "MJQ",
   "PORT_NAME": "Jackson Municipal",
   "LAT_DEC": 43.61666,
   "LONG_DEC": -95.01666,
   "CITY_NAME": "Jackson"
 },
 {
   "PORT_IATA": "CWA",
   "PORT_NAME": "Wausau Central Wisconsin Apt",
   "LAT_DEC": 44.78333,
   "LONG_DEC": -89.66666,
   "CITY_NAME": "Wausau"
 },
 {
   "PORT_IATA": "AUW",
   "PORT_NAME": "Wausau Downtown Apt",
   "LAT_DEC": 44.92832,
   "LONG_DEC": -89.62666,
   "CITY_NAME": "Wausau"
 },
 {
   "PORT_IATA": "ANR",
   "PORT_NAME": "Antwerp International",
   "LAT_DEC": 51.18944,
   "LONG_DEC": 4.46027,
   "CITY_NAME": "Antwerp"
 },
 {
   "PORT_IATA": "AEP",
   "PORT_NAME": "Buenos Aires Aeroparque J. Newbery",
   "LAT_DEC": -34.55888,
   "LONG_DEC": -58.41638,
   "CITY_NAME": "Buenos Aires"
 },
 {
   "PORT_IATA": "EZE",
   "PORT_NAME": "Buenos Aires Ministro Pistarini",
   "LAT_DEC": -34.82221,
   "LONG_DEC": -58.53583,
   "CITY_NAME": "Buenos Aires"
 },
 {
   "PORT_IATA": "AKC",
   "PORT_NAME": "Akron/Canton Akron Fulton Intl",
   "LAT_DEC": 41.03685,
   "LONG_DEC": -81.4687,
   "CITY_NAME": "Akron/Canton"
 },
 {
   "PORT_IATA": "CAK",
   "PORT_NAME": "Akron/Canton Regional",
   "LAT_DEC": 40.91611,
   "LONG_DEC": -81.44221,
   "CITY_NAME": "Akron/Canton"
 },
 {
   "PORT_IATA": "CHA",
   "PORT_NAME": "Chattanooga Metropolitan Apt",
   "LAT_DEC": 35.03527,
   "LONG_DEC": -85.20388,
   "CITY_NAME": "Chattanooga"
 },
 {
   "PORT_IATA": "IEV",
   "PORT_NAME": "Kyiv Zhuliany Intl Apt",
   "LAT_DEC": 50.40166,
   "LONG_DEC": 30.44971,
   "CITY_NAME": "Kyiv"
 },
 {
   "PORT_IATA": "KBP",
   "PORT_NAME": "Kyiv Borispol Intl Apt",
   "LAT_DEC": 50.34499,
   "LONG_DEC": 30.89471,
   "CITY_NAME": "Kyiv"
 },
 {
   "PORT_IATA": "HKS",
   "PORT_NAME": "Jackson Hawkins Field",
   "LAT_DEC": 32.33623,
   "LONG_DEC": -90.22387,
   "CITY_NAME": "Jackson"
 },
 {
   "PORT_IATA": "JAN",
   "PORT_NAME": "Jackson Medgar W. Evers Intl Apt",
   "LAT_DEC": 32.31111,
   "LONG_DEC": -90.07582,
   "CITY_NAME": "Jackson"
 },
 {
   "PORT_IATA": "JAX",
   "PORT_NAME": "Jacksonville International Apt",
   "LAT_DEC": 30.49416,
   "LONG_DEC": -81.68777,
   "CITY_NAME": "Jacksonville"
 },
 {
   "PORT_IATA": "CRG",
   "PORT_NAME": "Jacksonville Executive (Craig) Apt",
   "LAT_DEC": 30.33366,
   "LONG_DEC": -81.51327,
   "CITY_NAME": "Jacksonville"
 },
 {
   "PORT_IATA": "VQQ",
   "PORT_NAME": "Jacksonville Cecil Apt",
   "LAT_DEC": 30.5,
   "LONG_DEC": -81.68333,
   "CITY_NAME": "Jacksonville"
 },
 {
   "PORT_IATA": "UDD",
   "PORT_NAME": "Palm Springs Bermuda Dunes Apt",
   "LAT_DEC": 33.74927,
   "LONG_DEC": -116.27704,
   "CITY_NAME": "Palm Springs"
 },
 {
   "PORT_IATA": "PSP",
   "PORT_NAME": "Palm Springs International Apt",
   "LAT_DEC": 33.82971,
   "LONG_DEC": -116.50666,
   "CITY_NAME": "Palm Springs"
 },
 {
   "PORT_IATA": "RAP",
   "PORT_NAME": "Rapid City Regional Apt",
   "LAT_DEC": 44.04299,
   "LONG_DEC": -103.05681,
   "CITY_NAME": "Rapid City"
 },
 {
   "PORT_IATA": "MHR",
   "PORT_NAME": "Sacramento Mather",
   "LAT_DEC": 38.55475,
   "LONG_DEC": -121.29622,
   "CITY_NAME": "Sacramento"
 },
 {
   "PORT_IATA": "SMF",
   "PORT_NAME": "Sacramento International Apt",
   "LAT_DEC": 38.69555,
   "LONG_DEC": -121.59083,
   "CITY_NAME": "Sacramento"
 },
 {
   "PORT_IATA": "SCK",
   "PORT_NAME": "Sacramento Stockton Metropolitan",
   "LAT_DEC": 37.89416,
   "LONG_DEC": -121.23833,
   "CITY_NAME": "Sacramento"
 },
 {
   "PORT_IATA": "MCC",
   "PORT_NAME": "Sacramento McClellan",
   "LAT_DEC": 38.66943,
   "LONG_DEC": -121.4,
   "CITY_NAME": "Sacramento"
 },
 {
   "PORT_IATA": "SAC",
   "PORT_NAME": "Sacramento Executive Apt",
   "LAT_DEC": 38.51666,
   "LONG_DEC": -121.5,
   "CITY_NAME": "Sacramento"
 },
 {
   "PORT_IATA": "SJC",
   "PORT_NAME": "San Jose Norman Y. Mineta Intl",
   "LAT_DEC": 37.3625,
   "LONG_DEC": -121.92888,
   "CITY_NAME": "San Jose"
 },
 {
   "PORT_IATA": "RHV",
   "PORT_NAME": "San Jose Reid-Hillview Apt",
   "LAT_DEC": 37.3648,
   "LONG_DEC": -121.93168,
   "CITY_NAME": "San Jose"
 },
 {
   "PORT_IATA": "SUS",
   "PORT_NAME": "St Louis Spirit of St Louis Apt",
   "LAT_DEC": 38.66166,
   "LONG_DEC": -90.65166,
   "CITY_NAME": "St Louis"
 },
 {
   "PORT_IATA": "STL",
   "PORT_NAME": "St Louis Lambert Intl Apt",
   "LAT_DEC": 38.7486,
   "LONG_DEC": -90.36999,
   "CITY_NAME": "St Louis"
 },
 {
   "PORT_IATA": "CPS",
   "PORT_NAME": "St Louis Bi-State Parks Airport",
   "LAT_DEC": 38.56881,
   "LONG_DEC": -90.15396,
   "CITY_NAME": "St Louis"
 },
 {
   "PORT_IATA": "XEV",
   "PORT_NAME": "Stockholm C Rail Station",
   "LAT_DEC": 59.33035,
   "LONG_DEC": 18.05864,
   "CITY_NAME": "Stockholm"
 },
 {
   "PORT_IATA": "NYO",
   "PORT_NAME": "Stockholm Skavsta Airport",
   "LAT_DEC": 58.7886,
   "LONG_DEC": 16.91222,
   "CITY_NAME": "Stockholm"
 },
 {
   "PORT_IATA": "ARN",
   "PORT_NAME": "Stockholm Arlanda Apt",
   "LAT_DEC": 59.65194,
   "LONG_DEC": 17.9186,
   "CITY_NAME": "Stockholm"
 },
 {
   "PORT_IATA": "VST",
   "PORT_NAME": "Stockholm Vasteras Apt",
   "LAT_DEC": 59.58944,
   "LONG_DEC": 16.6336,
   "CITY_NAME": "Stockholm"
 },
 {
   "PORT_IATA": "BMA",
   "PORT_NAME": "Stockholm Bromma Apt",
   "LAT_DEC": 59.35444,
   "LONG_DEC": 17.94166,
   "CITY_NAME": "Stockholm"
 },
 {
   "PORT_IATA": "ZWS",
   "PORT_NAME": "Stuttgart Hbf Rail Station",
   "LAT_DEC": 48.78353,
   "LONG_DEC": 9.18127,
   "CITY_NAME": "Stuttgart"
 },
 {
   "PORT_IATA": "STR",
   "PORT_NAME": "Stuttgart Airport",
   "LAT_DEC": 48.68999,
   "LONG_DEC": 9.22193,
   "CITY_NAME": "Stuttgart"
 },
 {
   "PORT_IATA": "TOL",
   "PORT_NAME": "Toledo Express Apt",
   "LAT_DEC": 41.58694,
   "LONG_DEC": -83.80777,
   "CITY_NAME": "Toledo"
 },
 {
   "PORT_IATA": "DCA",
   "PORT_NAME": "Washington Ronald Reagan National Apt",
   "LAT_DEC": 38.85222,
   "LONG_DEC": -77.03777,
   "CITY_NAME": "Washington"
 },
 {
   "PORT_IATA": "IAD",
   "PORT_NAME": "Washington Dulles International Apt",
   "LAT_DEC": 38.94444,
   "LONG_DEC": -77.45583,
   "CITY_NAME": "Washington"
 },
 {
   "PORT_IATA": "ZWU",
   "PORT_NAME": "Washington DC Rail Station",
   "LAT_DEC": 38.89739,
   "LONG_DEC": -77.00624,
   "CITY_NAME": "Washington"
 },
 {
   "PORT_IATA": "YAZ",
   "PORT_NAME": "Tofino",
   "LAT_DEC": 49.08221,
   "LONG_DEC": -125.77249,
   "CITY_NAME": "Tofino"
 },
 {
   "PORT_IATA": "YYJ",
   "PORT_NAME": "Victoria International Apt",
   "LAT_DEC": 48.64694,
   "LONG_DEC": -123.42582,
   "CITY_NAME": "Victoria"
 },
 {
   "PORT_IATA": "YWH",
   "PORT_NAME": "Victoria Inner Harbour Apt",
   "LAT_DEC": 48.42371,
   "LONG_DEC": -123.37278,
   "CITY_NAME": "Victoria"
 },
 {
   "PORT_IATA": "YYQ",
   "PORT_NAME": "Churchill Airport",
   "LAT_DEC": 58.73658,
   "LONG_DEC": -94.06843,
   "CITY_NAME": "Churchill"
 },
 {
   "PORT_IATA": "SBD",
   "PORT_NAME": "San Bernardino International Apt",
   "LAT_DEC": 34.09566,
   "LONG_DEC": -117.23595,
   "CITY_NAME": "San Bernardino"
 },
 {
   "PORT_IATA": "LSQ",
   "PORT_NAME": "Maria Dolores",
   "LAT_DEC": -37.41666,
   "LONG_DEC": -72.35,
   "CITY_NAME": "Los Angeles"
 },
 {
   "PORT_IATA": "OPF",
   "PORT_NAME": "Miami Opa-Locka Executive Apt",
   "LAT_DEC": 25.80277,
   "LONG_DEC": -80.28333,
   "CITY_NAME": "Miami"
 },
 {
   "PORT_IATA": "MIA",
   "PORT_NAME": "Miami International Apt",
   "LAT_DEC": 25.79333,
   "LONG_DEC": -80.29055,
   "CITY_NAME": "Miami"
 },
 {
   "PORT_IATA": "TMB",
   "PORT_NAME": "Miami Executive Apt",
   "LAT_DEC": 25.6479,
   "LONG_DEC": -80.4328,
   "CITY_NAME": "Miami"
 },
 {
   "PORT_IATA": "MNL",
   "PORT_NAME": "Manila Ninoy Aquino International Apt",
   "LAT_DEC": 14.50861,
   "LONG_DEC": 121.01943,
   "CITY_NAME": "Manila"
 },
 {
   "PORT_IATA": "MYV",
   "PORT_NAME": "Marysville Yuba County Apt",
   "LAT_DEC": 39.1,
   "LONG_DEC": -121.56666,
   "CITY_NAME": "Marysville"
 },
 {
   "PORT_IATA": "AVW",
   "PORT_NAME": "Tucson Marana Regional",
   "LAT_DEC": 32.40904,
   "LONG_DEC": -111.21628,
   "CITY_NAME": "Tucson"
 },
 {
   "PORT_IATA": "TUS",
   "PORT_NAME": "Tucson International Apt",
   "LAT_DEC": 32.11611,
   "LONG_DEC": -110.9411,
   "CITY_NAME": "Tucson"
 },
 {
   "PORT_IATA": "MCN",
   "PORT_NAME": "Macon Middle Georgia Regional Apt",
   "LAT_DEC": 32.69602,
   "LONG_DEC": -83.64779,
   "CITY_NAME": "Macon"
 },
 {
   "PORT_IATA": "MGR",
   "PORT_NAME": "Moultrie Municipal Apt",
   "LAT_DEC": 31.08333,
   "LONG_DEC": -83.8,
   "CITY_NAME": "Moultrie"
 },
 {
   "PORT_IATA": "MIC",
   "PORT_NAME": "Minneapolis/St Paul Crystal Apt",
   "LAT_DEC": 45.05277,
   "LONG_DEC": -93.35,
   "CITY_NAME": "Minneapolis/St Paul"
 },
 {
   "PORT_IATA": "MSP",
   "PORT_NAME": "Minneapolis/St Paul International Apt",
   "LAT_DEC": 44.88193,
   "LONG_DEC": -93.22166,
   "CITY_NAME": "Minneapolis/St Paul"
 },
 {
   "PORT_IATA": "STP",
   "PORT_NAME": "Minneapolis/St Paul Downtown Apt",
   "LAT_DEC": 44.93333,
   "LONG_DEC": -93.06666,
   "CITY_NAME": "Minneapolis/St Paul"
 },
 {
   "PORT_IATA": "FCM",
   "PORT_NAME": "Minneapolis/St Paul Flying Cloud Apt",
   "LAT_DEC": 44.82753,
   "LONG_DEC": -93.45975,
   "CITY_NAME": "Minneapolis/St Paul"
 },
 {
   "PORT_IATA": "ZMU",
   "PORT_NAME": "Munich Hbf Rail Station",
   "LAT_DEC": 48.14088,
   "LONG_DEC": 11.55434,
   "CITY_NAME": "Munich"
 },
 {
   "PORT_IATA": "MUC",
   "PORT_NAME": "Munich International Airport",
   "LAT_DEC": 48.35388,
   "LONG_DEC": 11.7861,
   "CITY_NAME": "Munich"
 },
 {
   "PORT_IATA": "AGB",
   "PORT_NAME": "Munich Augsburg Airport",
   "LAT_DEC": 48.42527,
   "LONG_DEC": 10.93166,
   "CITY_NAME": "Munich"
 },
 {
   "PORT_IATA": "DRK",
   "PORT_NAME": "Drake Bay",
   "LAT_DEC": 8.71913,
   "LONG_DEC": -83.64193,
   "CITY_NAME": "Drake Bay"
 },
 {
   "PORT_IATA": "OAK",
   "PORT_NAME": "Oakland International Apt",
   "LAT_DEC": 37.72138,
   "LONG_DEC": -122.22082,
   "CITY_NAME": "Oakland"
 },
 {
   "PORT_IATA": "OKA",
   "PORT_NAME": "Okinawa Naha Apt",
   "LAT_DEC": 26.19583,
   "LONG_DEC": 127.64583,
   "CITY_NAME": "Okinawa"
 },
 {
   "PORT_IATA": "ORF",
   "PORT_NAME": "Norfolk International Apt",
   "LAT_DEC": 36.89471,
   "LONG_DEC": -76.20111,
   "CITY_NAME": "Norfolk"
 },
 {
   "PORT_IATA": "ORL",
   "PORT_NAME": "Orlando Executive Apt",
   "LAT_DEC": 28.54588,
   "LONG_DEC": -81.33146,
   "CITY_NAME": "Orlando"
 },
 {
   "PORT_IATA": "SFB",
   "PORT_NAME": "Orlando Sanford International Airport",
   "LAT_DEC": 28.77777,
   "LONG_DEC": -81.23749,
   "CITY_NAME": "Orlando"
 },
 {
   "PORT_IATA": "MCO",
   "PORT_NAME": "Orlando International Apt",
   "LAT_DEC": 28.42943,
   "LONG_DEC": -81.30888,
   "CITY_NAME": "Orlando"
 },
 {
   "PORT_IATA": "ISM",
   "PORT_NAME": "Orlando Kissimmee Gateway",
   "LAT_DEC": 28.29037,
   "LONG_DEC": -81.43758,
   "CITY_NAME": "Orlando"
 },
 {
   "PORT_IATA": "ORN",
   "PORT_NAME": "Oran Ahmed Ben Bella Apt",
   "LAT_DEC": 35.62388,
   "LONG_DEC": -0.6211,
   "CITY_NAME": "Oran"
 },
 {
   "PORT_IATA": "PBI",
   "PORT_NAME": "West Palm Beach International Apt",
   "LAT_DEC": 26.68304,
   "LONG_DEC": -80.09555,
   "CITY_NAME": "West Palm Beach"
 },