PORT_IATA,PORT_NAME,LAT_DEC,LONG_DEC,CITY_NAME,ACTIVE
RUL,Maavarulu,0.33805,73.51277,Maavarulu,Y
TFU,Tianfu International,30.31632,104.44266,Chengdu,Y
CQW,Chongqing Xiannvshan,29.46416,107.69333,Wulong,Y
YLX,Yulin,22.4327,110.11967,Yulin,Y
JAE,Aeropuerto de Shumba,-5.59361,-78.77361,Jaen,Y
CDT,Castellon,40.21391,0.07306,Castellon de la Plana,Y
SXB,Strasbourg International,48.54194,7.63444,Strasbourg,Y
HYD,Hyderabad Rajiv Gandhi Intl Arpt,17.23106,78.43125,Hyderabad,Y
BPM,Hyderabad Begumpet Airport,17.4531,78.46349,Hyderabad,Y
XER,Strasbourg Bus Station,48.58508,7.73544,Strasbourg Bus Station,Y
TLS,Blagnac,43.63499,1.36777,Toulouse,Y
AIS,Arorae,-2.61631,176.8025,Arorae,Y
BEZ,Beru,-1.35444,176.0066,Beru,Y
CEM,Central,65.57358,-144.77904,Central,Y
CIK,Chalkyitsik,66.64401,-143.74261,Chalkyitsik,Y
CLP,Clarks Point,58.83338,-158.52942,Clarks Point,Y
ELI,Elim,64.61539,-162.27009,Elim,Y
FFM,Fergus Falls Municipal,46.28333,-96.16666,Fergus Falls,Y
GLV,Golovin,64.548,-163.01186,Golovin,Y
HCR,Holy Cross,62.19022,-159.77244,Holy Cross,Y
HNH,Hoonah,58.09582,-135.41273,Hoonah,Y
KBC,Birch Creek,66.27212,-145.81879,Birch Creek,Y
KEO,Odienne,9.53874,-7.56228,Odienne,Y
KGX,Grayling,62.89764,-160.06716,Grayling,Y
KLL,Levelock,59.12604,-156.8608,Levelock,Y
KOT,Kotlik,63.03249,-163.53032,Kotlik,Y
KUC,Kuria,1.00376,173.03111,Kuria,Y
KWT,Kwethluk,60.79336,-161.44193,Kwethluk,Y
MDI,Makurdi,7.71666,8.6,Makurdi,Y
NGD,August George,18.73333,-64.31666,Anegada,Y
NIG,Nikunau,-1.3143,176.41073,Nikunau,Y
NNL,Nondalton,59.98029,-154.839,Nondalton,Y
OKE,Okierabu,27.43222,128.70575,Okierabu,Y
OOT,Onotoa,-1.79614,175.52589,Onotoa,Y
SDX,Sedona,34.8493,-111.78756,Sedona,Y
TGI,Tingo Maria,-9.28979,-76.00511,Tingo Maria,Y
VEE,Venetie,67.00632,-146.37821,Venetie,Y
WBB,Stebbins,63.51466,-162.28397,Stebbins,Y
WSN,South Naknek,58.70316,-157.00658,South Naknek,Y
TDW,Amarillo Tradewind Apt,35.23333,-101.71666,Amarillo,Y
AMA,Amarillo Rick Husband Intl Apt,35.21943,-101.70583,Amarillo,Y
ANK,Ankara Etimesgut Apt,39.95277,32.6861,Ankara,Y
ESB,Ankara Esenboga Apt,40.12804,32.99499,Ankara,Y
APW,Apia Faleolo Apt,-13.82971,-171.99721,Apia,Y
BFS,Belfast International Apt,54.6575,-6.21583,Belfast,Y
BHD,Belfast George Best City Apt,54.61804,-5.87249,Belfast,Y
OTP,Bucharest Henri Coanda Apt,44.57221,26.10222,Bucharest,Y
TZA,Belize City Municipal Apt,17.51617,-88.1954,Belize City,Y
BZE,Belize City Goldson Intl Apt,17.53916,-88.30833,Belize City,Y
CGF,Cleveland Cuyahoga County Apt,41.56656,-81.48404,Cleveland,Y
CLE,Cleveland Hopkins International Apt,41.41166,-81.84971,Cleveland,Y
BKL,Cleveland Burke Lakefront Apt,41.51749,-81.68333,Cleveland,Y
CMB,Bandaranaike Intl,7.18027,79.88527,Colombo,Y
RML,Colombo Ratmalana Apt,6.8209,79.8854,Colombo,Y
CPH,Copenhagen Kastrup Apt,55.62025,12.65003,Copenhagen,Y
RKE,Copenhagen Roskilde Apt,55.58564,12.13139,Copenhagen,Y
MGY,Dayton Wright Brothers Apt,39.58833,-84.22499,Dayton,Y
DAY,Dayton James M. Cox Intl Apt,39.9025,-84.21943,Dayton,Y
DOM,Dominica Melville Hall Apt,15.54694,-61.3,Dominica,Y
DRT,Del Rio International Apt,29.37324,-100.92615,Del Rio,Y
EYW,Key West International Apt,24.55611,-81.75944,Key West,Y
FCH,Fresno Chandler Executive Apt,36.73302,-119.82031,Fresno,Y
FAT,Fresno Yosemite International Airport,36.7761,-119.71804,Fresno,Y
FMY,Fort Myers Page Field,26.58333,-81.86666,Fort Myers,Y
RSW,Fort Myers SW Florida International Apt,26.5361,-81.75527,Fort Myers,Y
AYM,Abu Dhabi Yas Island SPB,24.4706,54.60958,Abu Dhabi Yas Island SPB,Y
GST,Gustavus Airport,58.42527,-135.7075,Gustavus,Y
GTF,Great Falls International Apt,47.48193,-111.37054,Great Falls,Y
GUM,Guam Antonio B Won Pat International,13.48333,144.7961,Guam,Y
KTN,Ketchikan International Apt,55.35555,-131.71388,Ketchikan,Y
LBB,Lubbock Preston Smith International Apt,33.66361,-101.82277,Lubbock,Y
XTI,Madrid Chamartin Rail Station,40.47388,-3.6825,Madrid,Y
MAD,Madrid Adolfo Suarez-Barajas Apt,40.4936,-3.56666,Madrid,Y
XOC,Madrid Atocha Rail Station,40.40583,-3.69083,Madrid,Y
MCE,Merced Regional Apt,37.28333,-120.51666,Merced,Y
BFM,Mobile Downtown Apt,30.63333,-88.06666,Mobile,Y
MOB,Mobile Regional Apt,30.6911,-88.24277,Mobile,Y
MRY,Monterey/Carmel Monterey Regional,36.58694,-121.84305,Monterey/Carmel,Y
CRE,Myrtle Beach Grand Strand Apt,33.81166,-78.72388,Myrtle Beach,Y
MYR,Myrtle Beach International,33.67971,-78.92832,Myrtle Beach,Y
NBO,Nairobi Jomo Kenyatta International Apt,-1.31916,36.92777,Nairobi,Y
WIL,Nairobi Wilson Apt,-1.32166,36.81472,Nairobi,Y
GEA,Noumea Magenta Apt,-22.25833,166.47277,Noumea,Y
NOU,La Tontouta,-22.01444,166.21305,Noumea,Y
MIQ,Omaha Millard Apt,41.3055,-75.89455,Omaha,Y
OMA,Omaha Eppley Airfield,41.30305,-95.89416,Omaha,Y
PBM,Paramaribo Johan A Pengel Intl Apt,5.45277,-55.18777,Paramaribo,Y
RIV,Riverside March JARB,33.88082,-117.25944,Riverside,Y
RAL,Riverside Municipal Apt,33.95,-117.43333,Riverside,Y
QRH,Rotterdam Centraal Rail Station,51.92395,4.47014,Rotterdam,Y
RTM,Rotterdam Apt,51.95305,4.43061,Rotterdam,Y
ALM,Alamogordo White Sands Rgnl,32.83999,-105.99055,Alamogordo,Y
SIN,Singapore Changi Apt,1.35916,103.98944,Singapore,Y
XSP,Singapore Seletar Apt,1.41693,103.86777,Singapore,Y
GEP,Genoa Brignole Railway Stn,11.40707,8.94725,Genoa Brignole Railway Stn,Y
CTS,Sapporo New Chitose Apt,42.77527,141.69221,Sapporo,Y
OKD,Sapporo Okadama Apt,43.11611,141.38027,Sapporo,Y
TLV,Tel Aviv-Yafo Ben Gurion Intl Apt,32.00709,34.88044,Tel Aviv-Yafo,Y
RVS,Tulsa Richard Lloyd Jones Junior Apt,36.15,-95.96666,Tulsa,Y
TUL,Tulsa International Apt,36.19833,-95.88805,Tulsa,Y
HND,Tokyo Intl (Haneda),35.55222,139.77971,Tokyo,Y
NRT,Tokyo Narita Intl,35.76472,140.38638,Tokyo,Y
VLD,Valdosta Regional Apt,30.78249,-83.27666,Valdosta,Y
WDG,Enid Woodring Regional,36.37987,-97.79097,Enid,Y
ZNA,Nanaimo Harbour,49.1679,-123.93067,Nanaimo,Y
YCD,Nanaimo Cassidy Apt,49.05222,-123.87027,Nanaimo,Y
YKM,Yakima Air Terminal,46.56799,-120.54064,Yakima,Y
YUM,Yuma International Apt,32.65666,-114.60611,Yuma,Y
MNK,Maiana,1.00361,173.031,Maiana,Y
MTK,Makin,3.37468,172.9923,Makin,Y
OKR,Yorke Island,-9.75257,143.40529,Yorke Island,Y
TMN,Tamana,-2.48605,175.97013,Tamana,Y
WMO,White Mountain,64.68626,-163.41098,White Mountain,Y
SIG,San Juan F.L.Ribas Doiminicci,18.45694,-66.09805,San Juan,Y
SJU,San Juan Luis Munoz Marin Intl Apt,18.43944,-66.00194,San Juan,Y
ZVH,Al Ain Bus Station,24.22,55.76,Al Ain Bus Station,Y
CKD,Crooked Creek,61.86666,-158.13333,Crooked Creek,Y
PQS,Pilot Station,61.93446,-162.89912,Pilot Station,Y
PTA,Port Alsworth,60.20234,-154.32311,Port Alsworth,Y
OGD,Ogden Hinckley Apt,41.19586,-112.01044,Ogden,Y
TPH,Tonopah Apt,38.06666,-117.23333,Tonopah,Y
UGB,Pilot Point Ugashik Bay Apt,57.42446,-157.7445,Pilot Point,Y
PIP,Pilot Point Airport,57.58027,-157.57193,Pilot Point,Y
MRI,Anchorage Merrill Field,61.23333,-149.9,Anchorage,Y
ANC,Anchorage Ted Stevens Intl Apt,61.17443,-149.99638,Anchorage,Y
CVN,Clovis Municipal Apt,34.42629,-103.07874,Clovis,Y
KTB,Thorne Bay Sea Plane Base,55.68333,-132.53333,Thorne Bay,Y
MLY,Manley Hot Springs,64.99804,-150.64097,Manley Hot Springs,Y
MNT,Al Wright,65.147,-149.36735,Minto,Y
BEC,Wichita Beech Factory Apt,37.68333,-97.21666,Wichita,Y
ICT,Wichita Dwight D. Eisenhower Apt,37.65277,-97.43304,Wichita,Y
SEE,San Diego Gillespie Field,32.82774,-116.97247,San Diego,Y
CLD,San Diego McClellan-Palomar Arpt,33.12833,-117.28,San Diego,Y
SAN,San Diego International,32.7336,-117.18971,San Diego,Y
SDM,San Diego Brown Municipal Apt,32.56666,-116.98333,San Diego,Y
MYF,San Diego Montgomery Field,32.81554,-117.13831,San Diego,Y
AAK,Aranuka,0.18503,173.63693,Aranuka,Y
APO,Carepa-A.R. Betancourt,7.81225,-76.71652,Apartado,Y
AXS,Altus Quartz Mountain Rgnl,34.70277,-99.33333,Altus,Y
FHZ,Fakahina,-15.99209,-140.16472,Fakahina,Y
LWK,Shetland Islands Lerwick/Tingwall Apt,60.19221,-1.2436,Shetland Islands,Y
LSI,Shetland Islands Sumburgh Apt,59.87888,-1.29555,Shetland Islands,Y
MWE,Merowe,18.4425,31.84311,Merowe,Y
HBQ,Haibei,38.00833,100.64083,Qilian,Y
YRA,Rae Lakes,64.11569,-117.30905,Rae Lakes,Y
GSE,Goteborg City Apt,57.77471,11.87027,Goteborg,Y
GOT,Goteborg Landvetter Apt,57.66277,12.27971,Goteborg,Y
YOG,Ogoki Post,51.65799,-85.90167,Ogoki,Y
ADB,Izmir Adnan Menderes Apt,38.29249,27.15694,Izmir,Y
KCG,Chignik Apt,56.31032,-158.37465,Chignik,Y
KCQ,Chignik Lake Apt,56.25553,-158.77927,Chignik,Y
KCL,Chignik Lagoon Apt,56.3119,-158.53131,Chignik,Y
KTF,Takaka,-40.85,172.8,Takaka,Y
MRA,Misurata,32.32187,15.06125,Misurata,Y
HKB,Healy Lake,63.86723,-148.97009,Healy Lake,Y
ZDJ,Berne Rail Station,46.91943,7.5,Berne,Y
BRN,Berne Belp,46.91416,7.49721,Berne,Y
DJH,Dubai Jebel Ali SPB,25.00193,55.02401,Dubai Jebel Ali SPB,Y
CGK,Jakarta Soekarno-Hatta Apt,-6.12554,106.65583,Jakarta,Y
HLP,Jakarta Halim Perdanakusuma Apt,-6.26666,106.8911,Jakarta,Y
BDG,Blanding Municipal,37.58333,-109.48333,Blanding,Y
BCE,Bryce Canyon,37.7,-112.15,Bryce Canyon,Y
YNL,Points North Landing,58.27499,-104.0811,Points North Landing,Y
GEG,Spokane International Apt,47.61696,-117.53989,Spokane,Y
SFF,Spokane Felts Field,47.68305,-117.3225,Spokane,Y
PLU,Belo Horizonte Pampulha Apt,-19.85111,-43.95055,Belo Horizonte,Y
CNF,Belo Horizonte Tancredo Neves Int Apt,-19.63388,-43.96888,Belo Horizonte,Y
DJN,Delta Junction Airport,64.05042,-145.7253,Delta Junction,Y
MEO,Manteo,35.91882,-75.69596,Manteo,Y
WNN,Wunnummin Lake,52.89461,-89.2906,Wunnummin Lake,Y
PNY,Pondicherry,11.96809,79.81126,Pondicherry,Y
SDU,Rio de Janeiro Santos Dumont Apt,-22.91055,-43.16305,Rio de Janeiro,Y
GIG,Rio de Janeiro Galeao-A.C.Jobim Int Apt,-22.81244,-43.24828,Rio de Janeiro,Y
QEW,Leicester Rail Station,52.63111,-1.12472,Leicester Rail Station,Y
WWI,Woodie Woodie,-21.64508,121.19076,Woodie Woodie,Y
EOH,Medellin Enrique Olaya Herrerra Apt,6.21999,-75.59055,Medellin,Y
MDE,Medellin Jose Maria Cordova Intl,6.16444,-75.42304,Medellin,Y
RVD,Leite de Castro,-17.83325,-50.95543,Rio Verde,Y
QKU,Cologne/Bonn Messe/Deutz Rail Stn,50.94034,6.97437,Cologne/Bonn,Y
CGN,Cologne/Bonn Apt,50.86583,7.14277,Cologne/Bonn,Y
QKL,"Cologne/Bonn, Cologne Hbf Rail Stn",50.94331,6.95819,Cologne/Bonn,Y
NDE,Mandera,3.93401,41.84439,Mandera,Y
WSH,Shirley,40.78333,-72.91666,Shirley,Y
YCK,Colville Lake,67.03956,-126.08087,Colville Lake,Y
DUR,Durban King Shaka International Apt,-29.61444,31.11638,Durban,Y
TCT,Takotna,62.99251,-156.0702,Takotna,Y
TOA,Zamperini Field,33.78333,-118.25,Torrance,Y
NRE,Namrole,-3.85474,126.70154,Namrole,Y
MEU,Serra do Areao,-0.88444,-52.6,Monte Dourado,Y
CUK,Caye Caulker,17.73506,-88.03236,Caye Caulker,Y
SZP,Santa Paula,34.34694,-119.06166,Santa Paula,Y
POI,Capitan Nicolas Rojas,-19.54328,-65.72371,Potosi,Y
LIX,Likoma Island,-12.0802,34.7363,Likoma Island,Y
AOG,Teng'ao,41.10551,122.85609,Anshan,Y
ETM,Ramon International,29.72722,34.99833,Eilat,Y
FUO,Shadi,23.0816,113.06988,Foshan,Y
JNG,Qufu,35.29301,116.34649,Jining,Y
TNH,Sanyuanpu,42.25283,125.70444,Tonghua,Y
OCE,Ocean City,38.30914,-75.12037,Ocean City,Y
PGM,Port Graham,59.34945,-151.8311,Port Graham,Y
PLJ,Placencia,16.53708,-88.36103,Placencia,Y
BFT,Beaufort County,32.4115,-80.6358,Beaufort,Y
BJU,Bajura,29.35,81.3,Bajura,Y
LBR,Labrea,-7.27879,-64.76949,Labrea,Y
IDI,Indiana County,40.63111,-79.1018,Indiana,Y
PTV,Porterville Municipal,36.03333,-119.06666,Porterville,Y
JIN,Jinja,0.45188,33.19424,Jinja,Y
JJN,Jinjiang,24.79531,118.58797,Quanzhou,Y
RHR,Ras al Khaimah Al Hamra SPB,25.69049,55.77774,Ras al Khaimah Al Hamra SPB,Y
SXV,Salem,11.78097,78.0634,Salem,Y
SXY,Sidney Municipal,42.31666,-75.4,Sidney,Y
ZFD,Fond du Lac,59.33505,-107.18426,Fond du Lac,Y
XRJ,Rome Termini Rail Station,41.90105,12.50193,Rome,Y
FCO,Rome Fiumicino Apt,41.80027,12.23888,Rome,Y
CIA,Rome Ciampino Apt,41.79869,12.59494,Rome,Y
XVQ,Venice Santa Lucia Rail Station,45.44104,12.32098,Venice,Y
TSF,Venice Treviso/Sant'Angelo Apt,45.65083,12.19777,Venice,Y
VCE,Venice Marco Polo Apt,45.50527,12.35194,Venice,Y
XVY,Venice Mestre Rail Station,45.48232,12.23207,Venice,Y
AEL,Albert Lea Municipal,43.68333,-93.36666,Albert Lea,Y
CIN,Arthur N. Neu,42.05,-94.78333,Carroll,Y
CIR,Cairo,37.06666,-89.21666,Cairo,Y
COL,Coll,56.60192,-6.61777,Coll,Y
CRS,C. David Campbell Fld,32.1,-96.46666,Corsicana,Y
BQC,Sainte-Foy Bus Station,46.76913,-71.30779,Sainte-Foy Bus Station,Y
GGR,Garowe,8.45794,48.56729,Garowe,Y
GIT,Geita,-2.86666,32.16666,Geita,Y
OLV,Olive Branch,34.97886,-89.78681,Olive Branch,Y
OMM,Marmul,18.13806,55.17984,Marmul,Y
VBA,Ann,19.77,94.02611,Ann,Y
ONY,Olney Municipal,33.36666,-98.75,Olney,Y
ORU,Juan Mendoza,-17.95249,-67.07566,Oruro,Y
XIT,Leipzig Hbf Rail Station,51.34559,12.38154,Leipzig/Halle,Y
LEJ,Leipzig/Halle Airport,51.4325,12.24166,Leipzig/Halle,Y
POY,Powell Municipal,44.86666,-108.8,Powell/Lovell,Y
AMW,Ames Municipal,42,-93.61666,Ames,Y
ANY,Anthony Municipal,37.15,-98.03333,Anthony,Y
MWH,Grant County Intl,47.20448,-119.31648,Moses Lake,Y
ASY,Ashley Municipal,46.03333,-99.36666,Ashley,Y
ATS,Artesia Municipal,32.85,-104.46666,Artesia,Y
AXG,Algona Municipal,43.06666,-94.23333,Algona,Y
AXX,Angel Fire,36.41666,-105.28333,Angel Fire,Y
BTW,Batu Licin,-3.45,116,Batu Licin,Y
BVY,Beverly,42.58416,-70.91611,Beverly,Y
BWC,Brawley,32.98333,-115.51666,Brawley,Y
BXS,Borrego Springs,33.25,-116.31666,Borrego Springs,Y
BYR,Laeso,57.27722,11,Laeso,Y
ISR,Salerno Rail Station,40.67527,14.77222,Salerno,Y
CTW,Cottonwood,34.73007,-112.03518,Cottonwood,Y
CXC,Chitina,61.56666,-144.41666,Chitina,Y
CYA,Antonie-Simon,18.26666,-73.78333,Les Cayes,Y
AXJ,Amakusa,32.48222,130.15888,Amakusa,Y
DKK,Chautauqua County,42.48333,-79.33333,Dunkirk,Y
GKN,Gulkana,62.15648,-145.45447,Gulkana,Y
GKT,Gatlinburg,35.85,-83.51666,Sevierville,Y
AHJ,Aba Hongyuan,32.53138,102.35194,Aba Hongyuan,Y
HAB,Marion Co. Rankin Fite,34.11666,-88,Hamilton,Y
HAO,Butler County Regional,39.36375,-84.52194,Hamilton,Y
HMI,Hami,42.84063,93.67079,Hami,Y
HNC,Billy Mitchell,35.23256,-75.61815,Hatteras,Y
HNN,Honinabi,-6.24604,142.17692,Honinabi,Y
JJG,Humberto Bortoluzzi,-28.67527,-49.05944,Jaguaruna,Y
HTH,Hawthorne Industrial,38.55,-118.63333,Hawthorne,Y
CLJ,Cluj-Napoca,46.78527,23.6861,Cluj-Napoca,Y
INB,Independence,16.53395,-88.44281,Independence,Y
IXT,Pasighat,28.06696,95.33615,Pasighat,Y
PSN,Palestine Municipal,31.75,-95.61666,Palestine,Y
RIE,Regional-Carl's Field,45.5,-91.73333,Rice Lake,Y
RKH,York County-Bryant Field,34.93333,-81.01666,Rock Hill,Y
ROG,Municipal - Carter Fld,36.371,-94.10752,Rogers,Y
RSN,Ruston Regional,32.51666,-92.61666,Ruston,Y
BCU,Bauchi,10.29234,9.81711,Bauchi,Y
BDY,Bandon,43.11666,-124.41666,Bandon,Y
CHW,Royal Well Bus Station,51.89944,-2.07805,Cheltenham Bus Station,Y
BIB,Baidoa,3.10236,43.62756,Baidoa,Y
BKB,Nal,28.01666,73.3,Bikaner,Y
BNO,Burns Municipal,43.58333,-118.95,Burns,Y
CDP,Cuddapah,14.51251,78.77226,Cuddapah,Y
DRE,Drummond Island,46.00863,-83.7463,Drummond Island,Y
DTL,Wething Field,46.83333,-95.88333,Detroit Lakes,Y
DXR,Danbury Municipal,41.37111,-73.48199,Danbury,Y
EBM,El-Borma,31.70378,9.25494,El-Borma,Y
XRL,Reggio nell'Emilia Mediopadana Rail Stn,44.69666,10.64916,Reggio nell'Emilia Mediopadana Rail Stn,Y
EVW,Uinta County,41.35,-111.01666,Evanston,Y
FBL,Faribault,44.33333,-93.31666,Faribault,Y
GPP,Genoa Plazza Principe Rail Stn,44.41748,8.91976,Genoa Plazza Principe Rail Stn,Y
LEE,Leesburg International,28.82211,-81.80701,Leesburg,Y
NOT,Marin County,38.14361,-122.55611,Novato,Y
SAD,Safford Regional,32.85,-109.63333,Safford,Y
GXH,Gannan Xiahe,34.81888,102.62083,Xiahe,Y
BPE,Beidaihe,39.66638,119.06,Qinhaungdao,Y
SFM,Seacoast Regional,43.39217,-70.70761,Sanford,Y
SGZ,Songkhla,7.33333,100.53333,Songkhla,Y
SLT,Harriet Alexander Fld,38.53828,-106.04878,Salida,Y
SMG,Santa Maria,-12.39138,-76.75583,Santa Maria,Y
TKD,Takoradi,4.89538,-1.77452,Takoradi,Y
TKF,Truckee-Tahoe,39.31829,-120.13815,Truckee,Y
SAJ,Salamanca Bus Station,40.97027,-5.67527,Salamanca Bus Station,Y
TRM,J. Cochran Regional,33.62083,-116.15848,Thermal,Y
TTD,Troutdale,45.53333,-122.38333,Portland,Y
TYD,Tynda,55.2846,124.77796,Tynda,Y
TYM,Staniel Cay,24.1525,-76.43388,Staniel Cay,Y
UBU,Kalumburu,-14.41666,126.66666,Kalumburu,Y
UES,Waukesha County,43.04199,-88.23758,Waukesha,Y
ULM,New Ulm Municipal,44.31666,-94.5,New Ulm,Y
OXQ,Oxford Rail Station,51.75361,-1.27027,Oxford Rail Station,Y
UUK,Ugnu-Kuparuk,70.3308,-149.598,Kuparuk,Y
QRZ,Breda Rail Station,51.59545,4.77982,Breda Rail Station,Y
POQ,Poole Bus Station,50.71722,-1.97694,Poole Bus Station,Y
VLA,Vandalia Municipal,38.95,-89.08333,Vandalia,Y
VNC,Venice Municipal,27.06666,-82.43333,Venice,Y
CRP,Corpus Christi International Apt,27.77027,-97.50111,Corpus Christi,Y
CGS,College Park,38.98055,-76.92222,College Park,Y
EVM,Eveleth-Virginia Municipal,47.43333,-92.5,Eveleth,Y
INF,In Guezzam,19.56095,5.7513,In Guezzam,Y
SEJ,Salamanca Rail Station,40.97166,-5.64833,Salamanca Rail Station,Y
KLF,Grabtsevo,54.54855,36.37147,Kaluga,Y
RNW,Ringwood Bus Station,50.84694,-1.79138,Ringwood Bus Station,Y
USJ,Usharal,46.19074,80.82986,Usharal,Y
LLX,Caledonia County,44.56916,-72.01805,Lyndonville,Y
LMZ,Palma,-10.76666,40.48333,Palma,Y
LNP,Lonesome Pine,36.98333,-82.56666,Wise,Y
LOY,Loyengalani,2.76343,36.71829,Loyengalani,Y
LSN,Los Banos Municipal,37.06666,-120.85,Los Banos,Y
LTM,Lethem,3.4,-59.8,Lethem,Y
LXV,Lake County,39.2203,-106.317,Leadville,Y
TTY,Taunton Bus Station,51.01527,-3.10583,Taunton Bus Station,Y
XJO,Soria Bus Station,41.76694,-2.47944,Soria Bus Station,Y
MIT,Minter Field,35.5,-119.26666,Shafter,Y
MIV,Millville Municipal,39.36666,-75.08333,Millville,Y
MJU,Tampa Padang,-2.5883,119.02762,Mamuju,Y
MLT,Millinocket Municipal,45.64929,-68.69195,Millinocket,Y
MPR,McPherson,38.35,-97.68333,McPherson,Y
MQY,Smyrna,36.00965,-86.52052,Smyrna,Y
MUT,Muscatine Municipal,41.36624,-91.14592,Muscatine,Y
MWK,Tarempa,3.29991,106.26536,Matak,Y
MYK,May Creek,61.36666,-142.68333,May Creek,Y
WNC,Winchester Bus Station,51.0622,-1.30996,Winchester Bus Station,Y
NDC,Nanded,19.18171,77.32254,Nanded,Y
OVE,Oroville Municipal,39.48333,-121.63333,Oroville,Y
PAO,Santa Clara County,37.46155,-122.11557,Palo Alto,Y
PEQ,Pecos Municipal,31.38811,-103.51444,Pecos,Y
PGH,Pantnagar,29.03193,79.4736,Pantnagar,Y
CDC,Cedar City Regional,37.70083,-113.09888,Cedar City,Y
KJH,Kai Li,26.97194,107.9875,Huang Ping,Y
PTT,Pratt Regional,37.7,-98.75,Pratt,Y
VBT,Vigo Bus Station,42.22416,-8.70944,Vigo Bus Station,Y
WMC,Winnemucca Municipal,40.96666,-117.73333,Winnemucca,Y
WTZ,Whitianga,-36.83333,175.7,Whitianga,Y
WVI,Watsonville Municipal,36.93399,-121.79188,Watsonville,Y
XDY,Sudbury Jct Rail Station,46.61943,-80.80277,Sudbury,Y
YSB,Sudbury Airport,46.62499,-80.79888,Sudbury,Y
FRD,Friday Harbor Airport,48.52534,-123.02592,Friday Harbor,Y
YDV,Bloodvein,51.75,-96.73333,Bloodvein,Y
YOK,Yokohama,35.46666,139.63333,Yokohama,Y
YVG,Vermillion,53.36666,-110.85,Vermillion,Y
KMW,Kostroma,57.75,40.93333,Kostroma,Y
YXS,Prince George Airport,53.8818,-122.67562,Prince George,Y
ILQ,Ilo,-17.695,-71.344,Ilo,Y
MYP,Mary,37.62298,61.89573,Mary,Y
KEF,Reykjavik Keflavik International Apt,63.985,-22.60555,Reykjavik,Y
RKV,Reykjavik Apt,64.13,-21.94055,Reykjavik,Y
XZL,Edmonton Rail Station,53.58213,-113.52571,Edmonton,Y
YEG,Edmonton International Apt,53.30731,-113.58594,Edmonton,Y
RUH,Riyadh King Khalid Intl,24.95777,46.69888,Riyadh,Y
XDH,Jasper Rail Station,52.87637,-118.07877,Jasper,Y
TNE,Tanegashima,30.54525,130.95141,Tanegashima,Y
PAC,Panama City Marcos A.Gelabert Intl,8.97332,-79.55555,Panama City,Y
PTY,Panama City Tocumen International,9.07138,-79.38333,Panama City,Y
BWI,Baltimore Washington International Apt,39.17527,-76.66832,Baltimore,Y
MTN,Baltimore Martin State,39.32602,-76.41388,Baltimore,Y
ZBP,Baltimore Penn Rail Station,39.30733,-76.61564,Baltimore,Y
XEF,Winnipeg Union Rail Station,49.88901,-97.13434,Winnipeg,Y
YWG,Winnipeg J.A. Richardson Intl Apt,49.91,-97.23999,Winnipeg,Y
HNY,Bajialing,26.90547,112.6281,Hengyang,Y
LBP,Long Banga,3.20212,115.40195,Long Banga,Y
LUL,Hattiesburg/Laurel Hesler-Noble Field,31.66666,-89.16666,Hattiesburg/Laurel,Y
PIB,Hattiesburg/Laurel Regional Apt,31.46721,-89.33694,Hattiesburg/Laurel,Y
FLX,Fallon Municipal Apt,39.46666,-118.76943,Fallon,Y
SHI,Shimojishima,24.82712,125.14478,Shimojishima,Y
YBL,Campbell River Municipal Apt,49.95083,-125.27054,Campbell River,Y
ELA,Eagle Lake,29.58333,-96.33333,Eagle Lake,Y
OBY,Ittoqqortoormiit,70.48818,-21.9716,Ittoqqortoormiit,Y
EIS,Tortola Terrence B Lettsome,18.44471,-64.54305,Tortola,Y
TIW,Tacoma Narrows,47.26638,-122.56666,Tacoma,Y
TCM,Tacoma McChord Field,47.13787,-122.47642,Tacoma,Y
UVF,Hewanorra Intl,13.73333,-60.9525,St Lucia,Y
SLU,St Lucia George F.L. Charles Apt,14.02027,-60.99305,St Lucia,Y
LDJ,Linden,40.6175,-74.24433,Linden,Y
LCZ,Lecce Rail Station,40.34555,18.16555,Lecce Rail Station,Y
LTZ,Lamezia Terme Central Rail Station,38.92138,16.25527,Lamezia Terme Central Rail Station,Y
VCP,Sao Paulo Viracopos-Campinas Intl Apt,-23.00805,-47.13471,Sao Paulo,Y
CGH,Sao Paulo Congonhas Apt,-23.62666,-46.65805,Sao Paulo,Y
GRU,Sao Paulo Guarulhos Intl Apt,-23.43193,-46.46943,Sao Paulo,Y
ISS,Wiscasset,43.96184,-69.7118,Wiscasset,Y
NNR,Spiddal,53.23055,-9.46777,Spiddal,Y
LDZ,Londolozi,-24.8079,31.50407,Londolozi,Y
CBI,Cape Barren Island,-40.39019,148.01508,Cape Barren Island,Y
PDB,Pedro Bay,59.79577,-154.12361,Pedro Bay,Y
ZYI,Xinzhou,27.81111,107.2461,Zunyi,Y
MLF,Milford Municipal,38.43333,-113.01666,Milford,Y
MDD,Midland Airpark,31.9361,-102.2,Midland,Y
MAF,Midland International Apt,31.94249,-102.20194,Midland,Y
LOK,Lodwar,3.12142,35.6054,Lodwar,Y
LPC,Lompoc Apt,34.66666,-120.46943,Lompoc,Y
YHZ,Halifax Stanfield International Apt,44.88668,-63.51251,Halifax,Y
XEA,Vancouver Rail Station,49.2714,-123.09808,Vancouver,Y
YXX,Vancouver Abbotsford Intl Apt,49.02527,-122.36055,Vancouver,Y
YVR,Vancouver International Apt,49.19388,-123.18444,Vancouver,Y
CXH,Vancouver Coal Harbour SPB,49.29165,-123.12118,Vancouver,Y
YGP,Gaspe,48.77527,-64.4786,Gaspe,Y
XDQ,London Rail Station,43.0361,-81.15277,London,Y
YXU,London International,43.03555,-81.15388,London,Y
NON,Nonouti,-0.63969,174.4279,Nonouti,Y
BTN,Marlboro Co. Jetport,34.61666,-79.68333,Bennettsville,Y
ZPH,Zephyrhills Municipal,28.23333,-82.16666,Zephyrhills,Y
NAM,Namlea,-3.23696,127.10024,Namlea,Y
CHG,Chaoyang,41.54136,120.4338,Chaoyang,Y
ABU,Haliwen,-9.07479,124.90377,Atambua,Y
AUN,Auburn Municipal,38.9,-121.06666,Auburn,Y
AKL,Auckland International Apt,-37.00972,174.79166,Auckland,Y
ATL,Atlanta Hartsfield-Jackson Intl Apt,33.63666,-84.42804,Atlanta,Y
PDK,Atlanta De Kalb-Peachtree,33.88333,-84.3,Atlanta,Y
FTY,Atlanta Fulton County Apt,33.77822,-84.52675,Atlanta,Y
WDH,Windhoek Hosea Kutako International,-22.47999,17.47082,Windhoek,Y
ERS,Windhoek Eros Apt,-22.61222,17.08054,Windhoek,Y
SKX,Saransk,54.12583,45.2131,Saransk,Y
YZA,Ashcroft,50.72095,-121.27949,Ashcroft,Y
AMM,Amman Queen Alia International Apt,31.72249,35.99333,Amman,Y
THD,Tho Xuan,19.9025,105.46916,Thanh Hoe,Y
FNA,Freetown Lungi International Apt,8.61638,-13.19555,Freetown,Y
CWB,Curitiba Afonso Pena Intl,-25.5286,-49.17582,Curitiba,Y
MSQ,Minsk International Apt,53.88249,28.03082,Minsk,Y
DIK,T. Roosevelt Regional,46.8,-102.8,Dickinson,Y
LND,Lander,42.8,-108.67499,Lander,Y
BET,Bethel Apt,60.77971,-161.83805,Bethel,Y
RCY,Port Nelson,23.65139,-74.845,Rum Cay,Y
RWL,Rawlins Municipal (Harvey Fld),41.8,-107.2,Rawlins,Y
NEW,New Orleans Lakefront Apt,30.04317,-90.02977,New Orleans,Y
MSY,New Orleans Louis Armstrong Intl Apt,29.99333,-90.25805,New Orleans,Y
ENV,Wendover,40.73333,-114.03333,Wendover,Y
JPR,Jose Coleto,-10.87078,-61.84674,Ji-Parana,Y
NDU,Rundu,-17.95593,19.7227,Rundu,Y
NYU,Bagan/Nyaung-U,21.17743,94.93036,Bagan/Nyaung-U,Y
RNJ,Yoron,27.04384,128.4017,Yoron,Y
RUP,Rupsi,26.1411,89.90658,Rupsi,Y
SRV,Stony River,61.78908,-156.58899,Stony River,Y
LZB,Leon Bus Station,42.59194,-5.57833,Leon Bus Station,Y
WBW,Wilkes-Barre/Scranton Wyoming Valley,41.23333,-75.88333,Wilkes-Barre/Scranton,Y
AVP,Wilkes-Barre/Scranton International Apt,41.3386,-75.72332,Wilkes-Barre/Scranton,Y
CSA,Colonsay,56.05752,-6.24294,Colonsay,Y
PVS,Provideniya Bay,64.37954,-173.24249,Provideniya,Y
TSU,Tabiteuea South,-1.4745,175.06452,Tabiteuea South,Y
KNK,Kokhanok,59.43329,-154.80359,Kokhanok,Y
RBK,French Valley,33.57689,-117.12902,Murrieta/Temecula,Y
RMS,Ramstein Air Base,49.43694,7.60027,Ramstein,Y
OGL,Ogle,6.80677,-58.10647,Georgetown,Y
EKX,Regional-Addington Fld,37.7,-85.86666,Elizabethtown,Y
BQW,Balgo Hill,-20.13333,127.8,Balgo Hill,Y
NCN,Chenega Bay,60.0794,-147.99491,Chenega,Y
TEK,Tatitlek,60.87134,-146.68951,Tatitlek,Y
RHD,Termas de Rio Hondo,-27.47359,-64.90649,Termas de Rio Hondo,Y
FDY,Findlay,41.01666,-83.66666,Findlay,Y
FLP,Marion County Regional,36.3,-92.58333,Flippin,Y
JGD,Jiagedaqi,50.37783,124.11552,Jiagedaqi,Y
YFJ,Snare Lake,64.19055,-114.07554,Snare Lake,Y
SQL,San Carlos,37.51257,-122.25041,San Carlos,Y
WJF,General William J Fox Apt,34.7409,-118.21853,Lancaster,Y
RWF,Redwood Falls Municipal,44.53333,-95.11666,Redwood Falls,Y
ZVR,Hannover Hbf Rail Station,52.377,9.74168,Hannover,Y
HAJ,Hannover,52.46032,9.68942,Hannover,Y
BJV,Bodrum Milas Airport,37.25055,27.66444,Bodrum,Y
TFN,Tenerife Norte,28.48277,-16.34166,Tenerife,Y
TFS,Tenerife Sur Apt,28.04444,-16.57249,Tenerife,Y
NLO,Kinshasa N'dolo Apt,-4.31666,15.31666,Kinshasa,Y
FIH,Kinshasa N'Djili Intl Apt,-4.38583,15.44444,Kinshasa,Y
CHU,Chuathbaluk,61.58451,-159.23777,Chuathbaluk,Y
OSJ,Ol Seki,-1.3784,35.37808,Maasai Mara,Y
ABF,Abaiang,1.38157,173.14747,Abaiang,Y
ADT,Ada Municipal,34.8,-96.66666,Ada,Y
VJI,Abingdon,36.68606,-82.03521,Abingdon,Y
LDX,St-Laurent du Maroni,5.48333,-54.03333,St-Laurent du Maroni,Y
YSG,Lutselke Snowdrift,62.41769,-110.68236,Lutselke Snowdrift,Y
ANV,Anvik,62.64901,-160.18954,Anvik,Y
WPU,Guardiamarina Zanartu,-54.93106,-67.62663,Puerto Williams,Y
HIJ,Hiroshima,34.4361,132.91943,Hiroshima,Y
NER,Chulman,56.91117,124.9029,Neryungri,Y
USK,Usinsk,66.00438,57.36713,Usinsk,Y
DNN,Dalton Municipal Airport,34.71666,-84.86666,Dalton,Y
KOM,Komo-Manda,-6.14809,143.65723,Komo-Manda,Y
ADS,Dallas Addison Apt,32.97016,-96.83712,Dallas,Y
DFW,Dallas Dallas/Fort Worth Intl Apt,32.89694,-97.03805,Dallas,Y
DAL,Dallas Love Field,32.84721,-96.85166,Dallas,Y
FDK,Frederick,39.41666,-77.41666,Frederick,Y
SQA,Santa Ynez,34.60697,-120.07697,Santa Ynez,Y
APA,Denver Centennial Airport,39.57189,-104.85084,Denver,Y
DEN,Denver Intl Apt,39.86166,-104.67304,Denver,Y
BJC,Denver Rocky Mountain Metrop.,39.90904,-105.11584,Denver,Y
SZE,Semera,11.78633,40.99281,Semera,Y
SMO,Santa Monica Municipal,34.015,-118.45166,Santa Monica,Y
BYP,Barimunya,-22.6725,119.16583,Barimunya,Y
YAV,Miner's Bay,48.85235,-123.30144,Miner's Bay,Y
CYS,Cheyenne Regional Apt,41.15583,-104.81194,Cheyenne,Y
ISC,Isles of Scilly St Mary's Apt,49.91333,-6.29166,Isles of Scilly,Y
MKE,Milwaukee General Mitchell Intl Apt,42.94721,-87.89666,Milwaukee,Y
EBJ,Esbjerg Airport,55.52582,8.55333,Esbjerg,Y
ORT,Northway,62.96114,-141.92811,Northway,Y
ZVJ,Abu Dhabi Bus Station,24.47,54.33,Abu Dhabi,Y
AUH,Abu Dhabi International Apt,24.43304,54.65111,Abu Dhabi,Y
AZI,Abu Dhabi Bateen Apt,24.42756,54.45909,Abu Dhabi,Y
AUM,Austin Municipal,43.66666,-92.93333,Austin,Y
BML,Berlin Regional,44.48333,-71.16666,Berlin,Y
ADM,Ardmore Municipal Airport,34.3,-97.01666,Ardmore,Y
DNL,Augusta Daniel Field,33.46666,-82.03333,Augusta,Y
AGS,Augusta Regional (Bush Field),33.36999,-81.96444,Augusta,Y
AUS,Austin-Bergstrom International Apt,30.19444,-97.66999,Austin,Y
CGE,Cambridge-Dorchester,38.55,-76.03333,Cambridge,Y
ABI,Abilene Regional Apt,32.41138,-99.68193,Abilene,Y
BHX,Birmingham Airport,52.45361,-1.74777,Birmingham,Y
LUK,Cincinnati Municipal (Lunken Fld) Apt,39.1,-84.41666,Cincinnati,Y
CVG,Cincinnati Northern Kentucky Intl,39.04888,-84.66777,Cincinnati,Y
SSI,Brunswick McKinnon St Simon Is. Apt,31.15,-81.38333,Brunswick,Y
BQK,Brunswick Golden Isles,31.25888,-81.46638,Brunswick,Y
CAE,Columbia Metropolitan Apt,33.93888,-81.11943,Columbia,Y
OSU,Columbus Ohio State University Apt,40.08333,-83.06666,Columbus,Y
LCK,Columbus Rickenbacker Intl Apt,39.81388,-82.92777,Columbus,Y
CMH,Columbus John Glenn Intl Apt,39.99805,-82.89194,Columbus,Y
COS,Colorado Springs Municipal,38.80583,-104.70083,Colorado Springs,Y
CSG,Columbus Apt,32.5143,-84.94017,Columbus,Y
EIN,Eindhoven Airport,51.45,5.37443,Eindhoven,Y
UBS,Columbus Lowndes County Apt,33.5,-88.41666,Columbus,Y
GTR,Columbus Golden Triangle Regional Apt,33.46573,-88.38075,Columbus,Y
AMK,Durango Animas Air Park,37.15277,-107.75277,Durango,Y
DRO,Durango La Plata County Apt,37.15198,-107.7536,Durango,Y
DUG,Douglas/Bisbee Bisbee-Douglas Intl,31.46666,-109.6,Douglas/Bisbee,Y
FAI,Fairbanks International Apt,64.815,-147.85638,Fairbanks,Y
FNL,Fort Collins/Loveland Municipal Apt,40.45166,-105.01166,Fort Collins/Loveland,Y
FRA,Frankfurt International Apt,50.03304,8.57054,Frankfurt,Y
HHN,Frankfurt Hahn Airport,49.9486,7.26388,Frankfurt,Y
ZRB,Frankfurt Hbf Rail Station,50.10666,8.66298,Frankfurt,Y
FLL,Fort Lauderdale/Hollywood Intl Apt,26.07249,-80.15277,Fort Lauderdale,Y
FXE,Fort Lauderdale Executive Apt,26.19596,-80.16967,Fort Lauderdale,Y
ZGG,Glasgow Central Rail Station,55.85922,-4.25785,Glasgow,Y
PIK,Glasgow Prestwick Apt,55.50944,-4.58666,Glasgow,Y
GLA,Glasgow International Airport,55.87193,-4.43333,Glasgow,Y
GDC,Greenville/Spartanburg Donaldson Fld,34.84782,-82.34843,Greenville/Spartanburg,Y
GSP,Greenville/Spartanburg Intl Apt,34.89555,-82.21888,Greenville/Spartanburg,Y
SPA,Greenville/Spartanburg Downtown Mem.,34.95,-81.91666,Greenville/Spartanburg,Y
GMU,Greenville/Spartanburg Downtown Apt,34.86943,-82.41666,Greenville/Spartanburg,Y
SBO,Salina/Gunnison,39.02916,-111.83749,Salina/Gunnison,Y
ELP,El Paso International Apt,31.80237,-106.39818,El Paso,Y
ZUG,Harrisburg Rail Station,40.26166,-76.8786,Harrisburg,Y
MDT,Harrisburg International Apt,40.1936,-76.76333,Harrisburg,Y
HAR,Harrisburg Capital City,40.26666,-76.86666,Harrisburg,Y
ZRT,Hartford CT Rail Station,41.76891,-72.68098,Hartford,Y
BDL,Hartford Bradley International Apt,41.93888,-72.68333,Hartford,Y
HFD,Hartford Brainard Apt,41.73721,-72.64849,Hartford,Y
HOB,Hobbs Lea County Regional Apt,32.6881,-103.21473,Hobbs,Y
HOU,Houston William P. Hobby Apt,29.64555,-95.27888,Houston,Y
IAH,Houston George Bush Intercont.,29.98444,-95.34138,Houston,Y
DWH,Houston David Wayne Hooks Mem.,30.06111,-95.55444,Houston,Y
EFD,Houston Ellington,29.60546,-95.15526,Houston,Y
IWS,Houston West Houston Apt,29.8182,-95.6726,Houston,Y
SGR,Houston Sugar Land Regional,29.61666,-95.63333,Houston,Y
HSV,Huntsville Intl-Carl T. Jones Field,34.63721,-86.77499,Huntsville,Y
IPL,Imperial County Apt,32.83488,-115.57464,Imperial/El Centro,Y
AGC,Pittsburgh Allegheny County Apt,40.35444,-79.92947,Pittsburgh,Y
PIT,Pittsburgh International Apt,40.49138,-80.23277,Pittsburgh,Y
SPB,St Thomas Charlotte Amalie SPB,18.33751,-64.93949,St Thomas Island,Y
STT,St Thomas Cyril E King Apt,18.33721,-64.97332,St Thomas Island,Y
SSB,St Croix SPB,17.74768,-64.70539,St Croix Island,Y
STX,St Croix Henry E. Rohlsen Apt,17.70194,-64.7986,St Croix Island,Y
ADQ,Kodiak Apt,57.75,-152.49388,Kodiak,Y
ILE,Killeen/Fort Hood Skylark Field Apt,31.08499,-97.68666,Killeen/Fort Hood,Y
GRK,Killeen/Fort Hood Regional/R. Gray AAF,31.06721,-97.82888,Killeen/Fort Hood,Y
KIN,Norman Manley Intl,17.93555,-76.78749,Kingston,Y
SJO,San Jose Juan Santamaria Apt,9.99388,-84.20888,San Jose,Y
LVS,Las Vegas Municipal,35.65,-105.15,Las Vegas,Y
LXN,Jim Kelly Field,40.78333,-99.75,Lexington,Y
MJQ,Jackson Municipal,43.61666,-95.01666,Jackson,Y
CWA,Wausau Central Wisconsin Apt,44.78333,-89.66666,Wausau,Y
AUW,Wausau Downtown Apt,44.92832,-89.62666,Wausau,Y
ANR,Antwerp International,51.18944,4.46027,Antwerp,Y
AEP,Buenos Aires Aeroparque J. Newbery,-34.55888,-58.41638,Buenos Aires,Y
EZE,Buenos Aires Ministro Pistarini,-34.82221,-58.53583,Buenos Aires,Y
AKC,Akron/Canton Akron Fulton Intl,41.03685,-81.4687,Akron/Canton,Y
CAK,Akron/Canton Regional,40.91611,-81.44221,Akron/Canton,Y
CHA,Chattanooga Metropolitan Apt,35.03527,-85.20388,Chattanooga,Y
IEV,Kyiv Zhuliany Intl Apt,50.40166,30.44971,Kyiv,Y
KBP,Kyiv Borispol Intl Apt,50.34499,30.89471,Kyiv,Y
HKS,Jackson Hawkins Field,32.33623,-90.22387,Jackson,Y
JAN,Jackson Medgar W. Evers Intl Apt,32.31111,-90.07582,Jackson,Y
JAX,Jacksonville International Apt,30.49416,-81.68777,Jacksonville,Y
CRG,Jacksonville Executive (Craig) Apt,30.33366,-81.51327,Jacksonville,Y
VQQ,Jacksonville Cecil Apt,30.5,-81.68333,Jacksonville,Y
UDD,Palm Springs Bermuda Dunes Apt,33.74927,-116.27704,Palm Springs,Y
PSP,Palm Springs International Apt,33.82971,-116.50666,Palm Springs,Y
RAP,Rapid City Regional Apt,44.04299,-103.05681,Rapid City,Y
MHR,Sacramento Mather,38.55475,-121.29622,Sacramento,Y
SMF,Sacramento International Apt,38.69555,-121.59083,Sacramento,Y
SCK,Sacramento Stockton Metropolitan,37.89416,-121.23833,Sacramento,Y
MCC,Sacramento McClellan,38.66943,-121.4,Sacramento,Y
SAC,Sacramento Executive Apt,38.51666,-121.5,Sacramento,Y
SJC,San Jose Norman Y. Mineta Intl,37.3625,-121.92888,San Jose,Y
RHV,San Jose Reid-Hillview Apt,37.3648,-121.93168,San Jose,Y
SUS,St Louis Spirit of St Louis Apt,38.66166,-90.65166,St Louis,Y
STL,St Louis Lambert Intl Apt,38.7486,-90.36999,St Louis,Y
CPS,St Louis Bi-State Parks Airport,38.56881,-90.15396,St Louis,Y
XEV,Stockholm C Rail Station,59.33035,18.05864,Stockholm,Y
NYO,Stockholm Skavsta Airport,58.7886,16.91222,Stockholm,Y
ARN,Stockholm Arlanda Apt,59.65194,17.9186,Stockholm,Y
VST,Stockholm Vasteras Apt,59.58944,16.6336,Stockholm,Y
BMA,Stockholm Bromma Apt,59.35444,17.94166,Stockholm,Y
ZWS,Stuttgart Hbf Rail Station,48.78353,9.18127,Stuttgart,Y
STR,Stuttgart Airport,48.68999,9.22193,Stuttgart,Y
TOL,Toledo Express Apt,41.58694,-83.80777,Toledo,Y
DCA,Washington Ronald Reagan National Apt,38.85222,-77.03777,Washington,Y
IAD,Washington Dulles International Apt,38.94444,-77.45583,Washington,Y
ZWU,Washington DC Rail Station,38.89739,-77.00624,Washington,Y
YAZ,Tofino,49.08221,-125.77249,Tofino,Y
YYJ,Victoria International Apt,48.64694,-123.42582,Victoria,Y
YWH,Victoria Inner Harbour Apt,48.42371,-123.37278,Victoria,Y
YYQ,Churchill Airport,58.73658,-94.06843,Churchill,Y
SBD,San Bernardino International Apt,34.09566,-117.23595,San Bernardino,Y
LSQ,Maria Dolores,-37.41666,-72.35,Los Angeles,Y
OPF,Miami Opa-Locka Executive Apt,25.80277,-80.28333,Miami,Y
MIA,Miami International Apt,25.79333,-80.29055,Miami,Y
TMB,Miami Executive Apt,25.6479,-80.4328,Miami,Y
MNL,Manila Ninoy Aquino International Apt,14.50861,121.01943,Manila,Y
MYV,Marysville Yuba County Apt,39.1,-121.56666,Marysville,Y
AVW,Tucson Marana Regional,32.40904,-111.21628,Tucson,Y
TUS,Tucson International Apt,32.11611,-110.9411,Tucson,Y
MCN,Macon Middle Georgia Regional Apt,32.69602,-83.64779,Macon,Y
MGR,Moultrie Municipal Apt,31.08333,-83.8,Moultrie,Y
MIC,Minneapolis/St Paul Crystal Apt,45.05277,-93.35,Minneapolis/St Paul,Y
MSP,Minneapolis/St Paul International Apt,44.88193,-93.22166,Minneapolis/St Paul,Y
STP,Minneapolis/St Paul Downtown Apt,44.93333,-93.06666,Minneapolis/St Paul,Y
FCM,Minneapolis/St Paul Flying Cloud Apt,44.82753,-93.45975,Minneapolis/St Paul,Y
ZMU,Munich Hbf Rail Station,48.14088,11.55434,Munich,Y
MUC,Munich International Airport,48.35388,11.7861,Munich,Y
AGB,Munich Augsburg Airport,48.42527,10.93166,Munich,Y
DRK,Drake Bay,8.71913,-83.64193,Drake Bay,Y
OAK,Oakland International Apt,37.72138,-122.22082,Oakland,Y
OKA,Okinawa Naha Apt,26.19583,127.64583,Okinawa,Y
ORF,Norfolk International Apt,36.89471,-76.20111,Norfolk,Y
ORL,Orlando Executive Apt,28.54588,-81.33146,Orlando,Y
SFB,Orlando Sanford International Airport,28.77777,-81.23749,Orlando,Y
MCO,Orlando International Apt,28.42943,-81.30888,Orlando,Y
ISM,Orlando Kissimmee Gateway,28.29037,-81.43758,Orlando,Y
ORN,Oran Ahmed Ben Bella Apt,35.62388,-0.6211,Oran,Y
PBI,West Palm Beach International Apt,26.68304,-80.09555,West Palm Beach,Y
PNS,Pensacola International,30.47332,-87.18666,Pensacola,Y
YMY,Montreal Downtown Rail Station,45.5,-73.56666,Montreal,Y
YUL,Montreal Pierre Elliott Trudeau Int Apt,45.47054,-73.74083,Montreal,Y
YMX,Montreal Mirabel Intl Apt,45.67286,-74.03354,Montreal,Y
YHU,Montreal St Hubert Apt,45.51628,-73.42079,Montreal,Y
HAH,Moroni Prince Said Ibrahim,-11.5336,43.27193,Moroni,Y
EGE,Vail/Eagle County Rgnl Apt,39.64249,-106.91777,Vail,Y
ZWI,Wilmington Rail Station,39.73674,-75.55101,Wilmington,Y
ILG,Wilmington New Castle Apt,39.6786,-75.60666,Wilmington,Y
SAV,Savannah Hilton Head International Apt,32.12749,-81.20222,Savannah,Y
TOP,Topeka Phillip Billard Muni Apt,39.06666,-95.61666,Topeka,Y
FOE,Topeka Forbes AFB,38.95083,-95.66361,Topeka,Y
DSI,Destin/Ft Walton Beach Destin Exec Apt,30.39986,-86.47134,Destin/Ft Walton Beach,Y
VPS,Destin/Ft Walton Beach Apt,30.48666,-86.51999,Destin/Ft Walton Beach,Y
YPR,Prince Rupert Digby Island Apt,54.2861,-130.44471,Prince Rupert,Y
ACT,Waco Regional Apt,31.61138,-97.23054,Waco,Y
XDB,Lille Europe Rail Station,50.63862,3.07605,Lille,Y
LIL,Lille Lesquin Airport,50.56333,3.08694,Lille,Y
XFA,Lille Flandres Rail Station,50.63638,3.07083,Lille,Y
SEA,Seattle-Tacoma International Apt,47.44888,-122.30944,Seattle,Y
BFI,Seattle Boeing Fld-King Co Int,47.52999,-122.30194,Seattle,Y
SHV,Shreveport Regional Apt,32.44717,-93.82881,Shreveport,Y
NSI,Yaounde Nsimalen Intl Apt,3.72249,11.55333,Yaounde,Y
YQM,Greater Moncton International Airport,46.10668,-64.69242,Moncton,Y
CDV,Cordova Merle K (Mudhole) Smith Apt,60.49166,-145.47749,Cordova,Y
ONP,Newport Municipal,44.58333,-124.05,Newport,Y
CIZ,Coari,-4.13399,-63.13228,Coari,Y
KCO,Kocaeli,40.73333,30.08333,Kocaeli,Y
TSY,Wiriadinata,-7.34699,108.24622,Tasikmalaya,Y
AAL,Aalborg Airport,57.09277,9.84916,Aalborg,Y
AAR,Aarhus Tirstrup Airport,56.30371,10.61923,Aarhus,Y
KUL,Kuala Lumpur International Airport,2.74555,101.71472,Kuala Lumpur,Y
SZB,Kuala Lumpur Sultan Abdul Aziz Shah Apt,3.12155,101.5544,Kuala Lumpur,Y
KTU,Kota,25.16666,75.85,Kota,Y
KNB,Kanab Municipal,37.25,-112.83333,Kanab,Y
RHP,Ramechhap,27.4,86.08333,Ramechhap,Y
PAB,Bilaspur,22,82.06666,Bilaspur,Y
MTY,Monterrey Mariano Escobedo Intl,25.7786,-100.10694,Monterrey,Y
IKO,Air Station,52.9416,-168.85059,Nikolski,Y
KQA,Akutan,54.13301,-165.78064,Akutan,Y
KIE,Kieta,-6.30592,155.72846,Kieta,Y
AVX,Catalina,33.40476,-118.41607,Avalon,Y
IZT,Ixtepec,16.44882,-95.09364,Ixtepec,Y
SGD,Sonderborg Airport,54.96444,9.79166,Sonderborg,Y
QDV,Cmt.Rolim Adolfo Amaro,-23.18167,-46.94361,Jundiai,Y
QGL,St Gallen Rail Station,47.46666,9.4,St Gallen Rail Station,Y
QGN,Tarragona/Camp Rail Station,41.19194,1.27277,Tarragona/Camp Rail Station,Y
QIJ,Gijon Rail Station,43.53724,-5.67586,Gijon Rail Station,Y
LWC,Lawrence Municipal,38.95,-95.28333,Lawrence,Y
ZLY,Albany Rensselaer Rail Station,42.64086,-73.7411,Albany,Y
ALB,Albany International Airport,42.74833,-73.80166,Albany,Y
TTN,Philadelphia Trenton-Mercer Apt,40.27679,-74.81193,Philadelphia,Y
PHL,Philadelphia International Apt,39.87193,-75.2411,Philadelphia,Y
PNE,Philadelphia NE Philadelphia Apt,40.08215,-75.01289,Philadelphia,Y
ZTN,Philadelphia Trenton Rail Station,40.21847,-74.73305,Philadelphia,Y
ZFV,Philadelphia 30th Street Rail Station,39.95566,-75.18196,Philadelphia,Y
BBX,Philadelphia Wings Field,40.13746,-75.26532,Philadelphia,Y
AKR,Akure,7.24859,5.30175,Akure,Y
SIS,Sishen,-27.65,23,Sishen,Y
MBQ,Mbarara,-0.55,30.6,Mbarara,Y
MYQ,Mandakalli,12.23157,76.65713,Mysore,Y
MZH,Merzifon,40.82852,35.52027,Amasya,Y
YQB,Quebec International Airport,46.7911,-71.39333,Quebec,Y
XLJ,Quebec Rail Station,46.81738,-71.21384,Quebec,Y
HUV,Hudiksvall,61.76692,17.08412,Hudiksvall,Y
INQ,Inisheer,53.05861,-9.50611,Inisheer,Y
VSE,Viseu,40.73315,-7.88346,Viseu,Y
LVK,Livermore Municipal,37.68333,-121.76666,Livermore,Y
WJR,Wajir,1.78446,39.93267,Wajir,Y
ZME,Iselin Metropark Rail Station,40.56815,-74.3296,Iselin Metropark Rail Station,Y
QLP,La Spezia Railway Station,44.11666,9.83333,La Spezia Railway Station,Y
QPA,Padova Central Rail Station,45.41726,11.88026,Padova Central Rail Station,Y
QQX,Bath Spa Rail Station,51.37763,-2.35698,Bath Spa Rail Station,Y
QQY,York Rail Station,53.96666,-1.08333,York Rail Station,Y
LGB,Daugherty Field,33.81777,-118.15166,Long Beach,Y
CJF,Coondewanna,-22.965,118.8125,Coondewanna,Y
QUO,Akwa Ibom Intl,4.87368,8.09123,Uyo,Y
TVS,Sannuhe,39.71932,117.99332,Tangshan,Y
WLP,West Angelas,-23.13694,118.70674,West Angelas,Y
SWL,San Vicente,10.52466,119.27317,San Vicente,Y
KFS,Kastamonu,41.31496,33.79592,Kastamonu,Y
NGY,Nagoya EK Bus Station,35.17086,136.88277,Nagoya EK Bus Station,Y
RQA,Loulan,38.97472,88.00833,Ruoqiang,Y
ZEP,London Victoria Rail Station,51.49496,-0.14457,London Victoria Rail Station,Y
ZFC,Bradford Bus Station,53.79102,-1.75102,Bradford Bus Station,Y
ZFG,Doncaster/Sheffield Bus Station,53.38333,-1.5,Doncaster/Sheffield Bus Station,Y
ZIV,Inverness Rail Station,57.45,-4.25,Inverness Rail Station,Y
LUW,S.Aminuddin Amir,-1.03803,122.77251,Luwuk,Y
ZLZ,Leeds/Bradford Bus Station,53.79716,-1.53595,Leeds/Bradford Bus Station,Y
ZXE,Edinburgh Waverley Rail Station,55.95199,-3.18932,Edinburgh Waverley Rail Station,Y
XNA,Fayetteville/Springdale NW Arkansas Reg,36.28075,-94.30458,Fayetteville/Springdale,Y
SPZ,Fayetteville/Springdale Municipal,36.18333,-94.13333,Fayetteville/Springdale,Y
FYV,Fayetteville/Springdale Drake Field,36.00551,-94.17004,Fayetteville/Springdale,Y
AOH,Allen County,40.71666,-84.03333,Lima,Y
APT,Marion County,35.06666,-85.63333,Jasper,Y
AQI,Hafar al Batin,28.33502,46.12482,Qaisumah,Y
ARB,Ann Arbor Municipal,42.22351,-83.74556,Ann Arbor,Y
JRG,Veer Surendra Sai,21.91323,84.05094,Jharsuguda,Y
ASH,Boire Field,42.78333,-71.51666,Nashua,Y
AST,Astoria Regional,46.15911,-123.88084,Astoria,Y
ASX,John F Kennedy Memorial,46.55,-90.91666,Ashland,Y
ATT,Atmautluak,60.86678,-162.27377,Atmautluak,Y
ATW,Appleton International,44.26666,-88.51666,Appleton,Y
AUG,Augusta State,44.31794,-69.79684,Augusta,Y
AUK,Alakanuk Municipal,62.67876,-164.65075,Alakanuk,Y
AUO,Auburn University Regional,32.61666,-85.43333,Auburn,Y
AUZ,Aurora Municipal,41.76666,-88.31666,Aurora,Y
AWA,Awasa,7.06744,38.49028,Awasa,Y
AYS,Ware County,31.25,-82.4,Waycross,Y
BAM,Battle Mountain,40.63333,-116.93333,Battle Mountain,Y
BCB,Virginia Technical,37.20831,-80.40911,Blacksburg,Y
BCT,Boca Raton,26.37864,-80.10737,Boca Raton,Y
BEJ,Kalimarau,2.15519,117.43259,Tanjung Redeb,Y
BGD,Hutchinson County,35.65,-101.4,Borger,Y
BGX,Gustavo Kraemer,-31.38333,-54.11666,Bage,Y
BID,Block Island State,41.16802,-71.57874,Block Island,Y
BIH,Bishop,37.37357,-118.36525,Bishop,Y
BJI,Bemidji Regional,47.50953,-94.9329,Bemidji,Y
BKD,Stephens County,32.75,-98.9,Breckenridge,Y
BKE,Baker City Municipal,44.83333,-117.81666,Baker City,Y
BKX,Brookings Regional,44.30442,-96.81834,Brookings,Y
LAW,Lawton/Fort Sill Regional,34.56659,-98.41623,Lawton/Fort Sill,Y
LCI,Laconia Municipal,43.57207,-71.42072,Laconia,Y
LEW,Lewiston/Auburn Municipal,44.05,-70.28333,Lewiston/Auburn,Y
LGC,Callaway,33.01666,-85.08333,La Grange,Y
LGU,Logan-Cache,41.78333,-111.85,Logan,Y
LIQ,Lisala,2.17086,21.49689,Lisala,Y
LJA,Lodja,-3.46276,23.61822,Lodja,Y
LLY,South Jersey Regional,39.98333,-74.78333,Mount Holly,Y
LNV,Lihir Island,-3.04243,152.6277,Lihir Island,Y
LOT,Lewis University,41.6,-88.05,Romeoville,Y
LOZ,Magee Field,37.08333,-84.06666,London/Corbin,Y
LSA,Losuia,-8.50636,151.08107,Losuia,Y
LUP,Kalaupapa Municipal,21.21004,-156.97547,Kalaupapa,Y
LWB,Greenbrier Valley,37.85584,-80.40172,Lewisburg,Y
LWM,Lawrence Municipal,42.71736,-71.12207,Lawrence,Y
LWS,Nez Perce County,46.37528,-117.0135,Lewiston,Y
LWV,Vincennes International,38.76666,-87.6,Lawrenceville,Y
MAS,Momote,-2.06495,147.42482,Manus Island,Y
MAT,Tshimpi,-5.8,13.43333,Matadi,Y
MAW,Malden Regional,36.6,-89.98333,Malden,Y
MBL,Manistee Co.Blacker,44.27278,-86.25205,Manistee,Y
MCB,Pike County,31.17849,-90.47212,McComb,Y
MCK,Ben Nelson Regional,40.20776,-100.59256,McCook,Y
MCW,Mason City Municipal,43.15564,-93.33582,Mason City,Y
MDH,Southern Illinois,37.78333,-89.25,Carbondale/Murphysboro,Y
MEN,Brenoux,44.50416,3.5275,Mende,Y
MEQ,Nagan Raya,4.04553,96.24921,Cut Nyak Dien,Y
MFD,Lahm Regional,40.82329,-82.517,Mansfield,Y
MFI,Marshfield Municipal,44.63749,-90.18888,Marshfield,Y
MGJ,Orange County,41.51666,-74.26666,Montgomery,Y
MHE,Mitchell Municipal,43.76666,-98.03333,Mitchell,Y
MHV,Mojave,35.05912,-118.148,Mojave,Y
MIW,Marshalltown Municipal,42.11666,-92.91666,Marshalltown,Y
MLC,McAlester Regional,34.88333,-95.78333,McAlester,Y
GBI,Kalaburgi Airport,17.30765,76.95841,Gulbarga,Y
AAF,Apalachicola Regional,29.73333,-85.03333,Apalachicola,Y
AEA,Abemama,0.49054,173.82991,Abemama,Y
AET,Allakaket,66.5504,-152.63188,Allakaket,Y
AFN,Silver Ranch,42.80552,-72.00331,Jaffrey,Y
AFO,Afton Municipal,42.71666,-110.93333,Afton,Y
AGO,Magnolia Municipal,33.23333,-93.21666,Magnolia,Y
AIA,Alliance Municipal,42.05194,-102.80763,Alliance,Y
AIC,Ailinglapalap,7.27942,168.82569,Airok,Y
AIZ,Lee C Fine Memorial,38.1,-92.55,Kaiser/Lake of the Ozarks,Y
AKI,Akiak,60.90162,-161.23221,Akiak,Y
ALI,Alice International,27.7391,-98.02688,Alice,Y
ALN,St Louis Regional,38.89166,-90.17221,Alton,Y
ALS,San Luis Valley Rgnl,37.43749,-105.86615,Alamosa,Y
ALX,Thomas C Russell Field,32.93333,-85.95,Alexander City,Y
AMN,Gratiot Community,43.38333,-84.65,Alma,Y
GZP,Gazipasa,36.29805,32.29027,Gazipasa,Y
ANP,Lee,38.98333,-76.5,Annapolis,Y
BLF,Mercer County,37.3,-81.2,Bluefield/Princeton,Y
BLH,Blythe Municipal,33.61666,-114.71666,Blythe,Y
BLM,Monmouth Executive,40.18555,-74.1236,Belmar/Farmingdale,Y
BMB,Bumba,2.18365,22.47895,Bumba,Y
BMY,Waala,-19.72053,163.66105,Ile Art,Y
BRD,Brainerd Lakes Rgnl,46.40316,-94.12972,Brainerd,Y
BRY,Samuels Field,37.81354,-85.49994,Bardstown,Y
BTF,Skypark,40.87139,-111.92749,Bountiful,Y
BTL,W. K. Kellogg Regional,42.30368,-85.256,Kalamazoo/Battle Creek,Y
CVO,Corvallis Municipal,44.5,-123.28333,Corvallis/Albany,Y
CWI,Clinton Municipal,41.83333,-90.35,Clinton,Y
CZN,Chisana,62.07336,-142.05085,Chisana,Y
DAG,Barstow-Dagge,34.85,-116.78333,Daggett,Y
DAN,Danville Regional,36.56862,-79.33938,Danville,Y
DIB,Mohanbari,27.48333,95.01666,Dibrugarh,Y
DLE,Tavaux,47.04277,5.435,Dole,Y
DMO,Sedalia Regional,38.70908,-93.17277,Sedalia,Y
DMU,Dimapur,25.88236,93.77439,Dimapur,Y
DOV,Dover AFB,39.13333,-75.46666,Dover,Y
DTA,Delta Municipal,39.38333,-112.5,Delta,Y
DUC,Halliburton Field,34.46666,-97.96666,Duncan,Y
DUF,Pine Island,36.25833,-75.78888,Corolla,Y
DVL,Devils Lake Regional,48.11537,-98.90802,Devils Lake,Y
EAR,Kearney Regional,40.7265,-99.00889,Kearney,Y
EAT,Pangborn Memorial,47.3988,-120.20716,Wenatchee,Y
HIA,Lianshui,33.7875,119.12777,Huai'an,Y
EDR,Pormpuraaw,-14.89691,141.60954,Pormpuraaw,Y
EEK,Eek,60.21478,-162.01173,Eek,Y
EEN,Dillant Hopkins Municipal,42.9,-72.26666,Keene,Y
EFK,Newport State,44.89161,-72.22925,Newport,Y
EKN,Randolph County,38.88979,-79.85776,Elkins,Y
ELK,Elk City Regional Business,35.4,-99.41666,Elk City,Y
EMP,Emporia Municipal,38.33333,-96.18333,Emporia,Y
EMT,San Gabriel Valley,34.1,-118.03333,El Monte,Y
ENS,Twenthe,52.27477,6.88625,Enschede,Y
EOK,Keokuk Municipal,40.46666,-91.43333,Keokuk,Y
EPH,Ephrata Municipal,47.3,-119.51666,Ephrata,Y
ESC,Delta County,45.72041,-87.09569,Escanaba,Y
ESN,Newnam Field,38.80182,-76.06858,Easton,Y
ETN,Eastland Municipal,32.41666,-98.8,Eastland,Y
EUF,Weedon Field,31.95,-85.13333,Eufaula,Y
FAM,Farmington Municipal,37.7611,-90.42859,Farmington,Y
FDU,Bandundu,-3.31666,17.36666,Bandundu,Y
FFT,Capitol City,38.18333,-84.9,Frankfort,Y
FID,Elizabeth Field,41.25205,-72.0321,Fishers Island,Y
FIZ,Fitzroy,-18.18346,125.55995,Fitzroy Crossing,Y
FLD,Fond du Lac County,43.76889,-88.4862,Fond du Lac,Y
FME,Tipton,39.0853,-76.75944,Fort Meade/Odenton,Y
FMN,Four Corners Regional,36.74116,-108.23101,Farmington,Y
MMH,Mammoth Yosemite,37.62434,-118.8403,Mammoth Lakes,Y
MML,SW Minnesota Regional,44.44416,-95.81999,Marshall,Y
MMN,Minute Man Airfield,42.43333,-71.50277,Stow,Y
MMS,Selfs,34.21666,-90.28333,Marks,Y
MMU,Morristown Municipal,40.79775,-74.41507,Morristown,Y
MNB,Muanda,-5.93333,12.35,Muanda,Y
MNM,Menominee-Marinette,45.28333,-87.63333,Menominee,Y
MNN,Marion Municipal,40.61666,-83.06666,Marion,Y
MNO,Manono,-7.28901,27.39384,Manono,Y
MOP,Mount Pleasant Municipal,43.61666,-84.73333,Mount Pleasant,Y
MPA,Mpacha,-17.63333,24.18333,Katima Mulilo,Y
MPN,Mount Pleasant,-51.82276,-58.44549,Mount Pleasant,Y
MPV,Edward F Knapp State,44.19956,-72.5625,Barre/Montpelier,Y
MQB,Macomb Municipal,40.45,-90.61666,Macomb,Y
MQN,Rossvoll,66.36666,14.3,Mo I Rana,Y
MQQ,Moundou,8.62637,16.07241,Moundou,Y
MRC,Maury County,35.6,-87.03333,Columbia/Mt Pleasant,Y
MRE,Mara Serena,-1.40433,35.00924,Masai Mara,Y
MRF,Marfa Municipal,30.3711,-104.018,Marfa,Y
MRK,Marco Island,25.93333,-81.71666,Marco Island,Y
MSV,Sullivan County International,41.61666,-74.7,Monticello,Y
MTJ,Montrose Regional,38.50523,-107.89406,Montrose,Y
MTM,Metlakatla Seaplane Base,55.13333,-131.58333,Metlakatla,Y
MTO,Coles County Memorial,39.48333,-88.28333,Mattoon/Charleston,Y
MTP,Montauk,41.07693,-71.92004,Montauk,Y
MTW,Manitowoc County,44.12892,-87.68263,Manitowoc,Y
MVL,Morrisville/Stowe State,44.53476,-72.61394,Morrisville/Stowe,Y
MVN,Mount Vernon,38.31666,-88.86666,Mount Vernon,Y
MVY,Martha's Vineyard,41.39325,-70.61246,Martha's Vineyard,Y
MWA,Williamson County Regional,37.75131,-89.01649,Marion,Y
MWO,Regional (Hook Field),39.5,-84.38333,Middletown,Y
MXY,McCarthy Municipal,61.41666,-142.91666,McCarthy,Y
MZK,Marakei,2.0586,173.27167,Marakei,Y
NDK,Namorik Island,5.63282,168.12424,Namdrik Island,Y
NGL,Ngala,-24.3907,31.32759,Ngala,Y
NHZ,Brunswick Executive,43.89338,-69.93765,Brunswick,Y
NIO,Nioki,-2.71666,17.68333,Nioki,Y
NME,Nightmute,60.4722,-164.69914,Nightmute,Y
NOD,Norddeich,53.63305,7.18944,Norden,Y
NPT,Newport State,41.60075,-71.41537,Newport,Y
NTX,Ranai,3.90585,108.3877,Natuna,Y
NUP,Nunapitchuk,60.904,-162.44143,Nunapitchuk,Y
AKK,Akhiok,56.93848,-154.18383,Akhiok,Y
BUL,Bulolo,-7.21613,146.64974,Bulolo,Y
BVO,Bartlesville Municipal,36.76666,-96,Bartlesville,Y
BWD,Brownwood Regional,31.8,-98.95,Brownwood,Y
BWG,Warren County Regional,36.96735,-86.41906,Bowling Green,Y
BXA,George R. Carr Mem.,30.78333,-89.86666,Bogalusa,Y
BYK,Bouake,7.73692,-5.07108,Bouake,Y
BZA,San Pedro,14.02985,-84.62424,Bonanza,Y
MRB,Eastern W.V. Regional,39.40261,-77.98278,Martinsburg,Y
NCO,Quonset State,41.59722,-71.41222,North Kingstown,Y
CAD,Wexford County,44.27582,-85.42221,Cadillac,Y
CAR,Caribou Municipal,46.86666,-68.01666,Caribou,Y
CBE,Greater Cumberland Regional,39.6,-78.76666,Cumberland,Y
CBF,Council Bluffs Municipal,41.26666,-95.86666,Council Bluffs,Y
CCR,Buchanan Field,37.99175,-122.05582,Concord,Y
CCY,Northeast Iowa Rgnl,43.06666,-92.66666,Charles City,Y
CDH,Harrell Field,33.61666,-92.76666,Camden,Y
CDN,Woodward Field,34.26666,-80.6,Camden,Y
CDR,Chadron Municipal,42.835,-103.09835,Chadron,Y
CEU,Oconee County Regional,34.66666,-82.88333,Clemson,Y
CEY,Calloway County,36.66666,-88.36666,Murray,Y
CEZ,Cortez Municipal,37.30287,-108.62839,Cortez,Y
CFD,Coulter Field,30.68333,-96.4,Bryan,Y
CGA,Craig Seaplane Base,55.48333,-133.15,Craig,Y
CGZ,Casa Grande Municipal,32.88333,-111.75,Casa Grande,Y
CIC,Chico Municipal,39.7961,-121.85811,Chico,Y
TVF,Thief River Falls Regional,48.06666,-96.18333,Thief River Falls,Y
TVL,Lake Tahoe,38.89448,-119.99516,South Lake Tahoe,Y
TVU,Matei,-16.69057,-179.87744,Taveuni Island,Y
TWA,Twin Hills,59.0738,-160.27555,Twin Hills,Y
UKI,Ukiah Municipal,39.12666,-123.2,Ukiah,Y
UOX,University-Oxford,34.38333,-89.53333,University,Y
UPP,Upolu,20.26666,-155.85,Hawi,Y
XHK,Valence TGV Rail Station,44.99166,4.97861,Valence,Y
VEL,Vernal Regional,40.4432,-109.51063,Vernal,Y
VHN,Culberson County,31.05975,-104.78488,Van Horn,Y
VIH,Rolla National,38.13032,-91.7693,Rolla/Vichy,Y
VIS,Visalia Municipal,36.32085,-119.3957,Visalia,Y
VLE,Valle,35.65,-112.2,Grand Canyon,Y
VPZ,Porter County Municipal,41.45,-86.98333,Valparaiso,Y
VRB,Vero Beach Municipal,27.65554,-80.41782,Vero Beach,Y
VYS,Illinois Valley Regional,41.3525,-89.14971,Peru,Y
WDR,Barrow County,33.98333,-83.66666,Winder,Y
WGO,Winchester Regional,39.1431,-78.14392,Winchester,Y
WJA,Woja Island,7.451,168.55023,Woja Island,Y
WLD,Strother Field,37.16666,-97.05,Winfield/Arkansas City,Y
WLW,Glenn County,39.51666,-122.21666,Willows,Y
WNA,Napakiak,60.69314,-161.97898,Napakiak,Y
SFO,San Francisco International Apt,37.61888,-122.39166,San Francisco,Y
WSG,Washington County,40.13647,-80.28961,Washington,Y
WST,Westerly State,41.35037,-71.8021,Westerly,Y
WTL,Tuntutuliak,60.35032,-162.65529,Tuntutuliak,Y
WVL,Robert LaFleur,44.5359,-69.67346,Waterville,Y
WWD,Cape May County,39.45898,-74.57852,Wildwood,Y
XBE,Bearskin Lake,53.96457,-91.03098,Bearskin Lake,Y
XPL,Enrique Soto Cano,14.46888,-87.61721,Comayagua,Y
YHN,Hornepayne Municipal,49.19275,-84.75998,Hornepayne,Y
YIF,Pakuashipi,51.20973,-58.65739,Pakuashipi,Y
YKU,Chisasibi,53.80554,-78.91669,Chisasibi,Y
YPA,Glass Field,53.21805,-105.67329,Prince Albert,Y
YPN,Port Menier,49.83632,-64.28942,Port Menier,Y
YSF,Stony Rapids,59.25,-105.83333,Stony Rapids,Y
YVB,Bonaventure,48.07063,-65.45886,Bonaventure,Y
YVC,Barber Field,55.08333,-105.33333,La Ronge,Y
YXH,Medicine Hat,50.01716,-110.72297,Medicine Hat,Y
FRM,Fairmont Municipal,43.65,-94.41666,Fairmont,Y
JVI,Central Jersey Regional,40.52507,-74.59704,Manville,Y
JVL,Southern Wisconsin Regional,42.61666,-89.03333,Janesville,Y
JXN,Jackson County,42.25926,-84.46164,Jackson,Y
TVI,Thomasville Regional,30.90258,-83.88036,Thomasville,Y
ZGS,La Romaine,50.25958,-60.67453,La Romaine,Y
ZND,Zinder,13.77885,8.98361,Zinder,Y
ZWL,Wollaston Lake,58.10709,-103.17266,Wollaston Lake,Y
IRI,Iringa,-7.66987,35.75182,Iringa,Y
QJZ,Nantes Rail Station,47.21756,-1.54193,Nantes,Y
NTE,Nantes Atlantique Airport,47.15694,-1.60777,Nantes,Y
KCC,Coffman Seaplane Base,56.01229,-132.83382,Coffman Cove,Y
KEK,Ekwok Municipal,59.3531,-157.47638,Ekwok,Y
HMB,Sohag International,26.34277,31.74277,Sohag,Y
KIC,Mesa Del Rey,36.22788,-121.12059,King City,Y
KIF,Kingfisher Lake,53.01237,-89.85564,Kingfisher Lake,Y
KIO,Kili Island,5.64374,169.12436,Kili Island,Y
KKI,Akiachak,60.90519,-161.42372,Akiachak,Y
RAB,Tokua,-4.33979,152.37703,Rabaul,Y
KKW,Kikwit,-5.03577,18.7856,Kikwit,Y
KKX,Kikai,28.3215,129.92646,Kikai,Y
KLB,Kalabo,-14.9988,22.64818,Kalabo,Y
KLN,Larsen Bay,57.53441,-153.97776,Larsen Bay,Y
KLS,SW Washington Regional,46.15,-122.9,Kelso,Y
KMN,Kamina-Ville,-8.6411,25.25,Kamina,Y
KOZ,Ouzinkie,57.92528,-152.49646,Ouzinkie,Y
SNA,John Wayne Apt,33.67554,-117.86832,Santa Ana,Y
KPN,Kipnuk,59.93518,-164.03183,Kipnuk,Y
KRW,Turkmenbashi,40.06076,53.00799,Turkmenbashi,Y
KTE,Kerteh,4.54073,103.42565,Kerteh,Y
KTS,Brevig Mission,65.33197,-166.46741,Brevig Mission,Y
KUK,Kasigluk,60.8737,-162.52397,Kasigluk,Y
KUM,Yakushima,30.38533,130.65919,Yakushima,Y
KWF,Waterfall Seaplane Base,55.29508,-133.24445,Waterfall,Y
KYU,Koyukuk,64.87614,-157.72437,Koyukuk,Y
LAA,Lamar Municipal,38.06666,-102.68333,Lamar,Y
LAL,Linder Regional,28.08333,-81.95,Lakeland,Y
PBZ,Plettenberg Bay,-34.08795,23.32658,Plettenberg Bay,Y
PCT,Princeton,40.39916,-74.65888,Princeton/Rocky Hill,Y
PDT,Eastern Oregon Rgnl,45.69526,-118.83693,Pendleton,Y
PGA,Page Municipal,36.92393,-111.44768,Page,Y
PGD,Punta Gorda,26.91754,-81.99517,Punta Gorda,Y
PGK,Depati Amir,-2.16357,106.13908,Pangkalpinang,Y
PGO,Stevens Field,37.26666,-107.05,Pagosa Springs,Y
PGV,Pitt-Greenville,35.63563,-77.38416,Greenville,Y
PHK,Palm Beach County Glades,26.81666,-80.65,Pahokee,Y
PHN,Saint Clair County,42.9,-82.53333,Port Huron,Y
PKA,Napaskiak,60.70639,-161.77357,Napaskiak,Y
PNC,Ponca City Regional,36.73333,-97.1,Ponca City,Y
POC,Brackett Field,34.09136,-117.78221,La Verne,Y
POF,Poplar Bluff Municipal,36.75,-90.5,Poplar Bluff,Y
POH,Pocahontas Municipal,42.75,-94.65,Pocahontas,Y
PPM,Pompano Beach Airpark,26.23333,-80.12777,Pompano Beach,Y
PPQ,Paraparaumu,-40.90106,174.98794,Paraparaumu,Y
PRB,Paso Robles Municipal,35.66666,-120.63333,Paso Robles,Y
PRO,Perry Municipal,41.83333,-94.1,Perry,Y
PRS,Parasi,-9.64182,161.42579,Parasi,Y
PSC,Tri-Cities,46.26666,-119.11666,Pasco,Y
PSF,Pittsfield Municipal,42.42737,-73.29216,Pittsfield,Y
PSJ,Kasinguncu,-1.41826,120.65652,Poso,Y
PSK,New River Valley,37.11666,-80.68333,Pulaski,Y
PTN,Harry P. Williams Mem.,29.75,-91.30833,Patterson,Y
PTW,Heritage Field,40.26032,-75.67145,Pottstown,Y
PUC,Carbon County Regional,39.60277,-110.75,Price,Y
PUW,Pullman/Moscow Regional,46.74353,-117.11091,Pullman/Moscow,Y
PVC,Provincetown Municipal,42.07252,-70.22027,Provincetown,Y
PWT,Bremerton National,47.48333,-122.75,Bremerton,Y
PZL,Zulu Inyala Airfield,-27.8497,32.30991,Phinda Game Reserve,Y
RAC,John H. Batten,42.75777,-87.82082,Racine,Y
RAQ,Sugimanuru,-4.85,122.71666,Muna,Y
RBL,Red Bluff Municipal,40.15,-122.25,Red Bluff,Y
RDG,Reading Regional,40.37901,-75.96666,Reading,Y
RIF,Richfield Municipal,38.75,-112.1,Richfield,Y
RIL,Garfield County Rgnl,39.52447,-107.72503,Rifle,Y
RIW,Riverton Regional,43.06533,-108.45982,Riverton,Y
RJB,Rajbiraj,26.50979,86.73449,Rajbiraj,Y
RKD,Knox County,44.05938,-69.09965,Rockland,Y
RCC,Reggio di Calabria Central Rail Station,38.10388,15.63555,Reggio di Calabria Central Rail Station,Y
RLD,Richland,46.30631,-119.3039,Richland,Y
RMG,Richard B Russel Regional,34.35,-85.16666,Rome,Y
RNC,Warren County Memorial,35.7,-85.83333,McMinnville,Y
RSH,Russian Mission,61.77809,-161.31951,Russian Mission,Y
RWI,Wilson Regional,35.76666,-77.96666,Rocky Mount,Y
SAA,Shively Field,41.45,-106.8,Saratoga,Y
SAF,Santa Fe Municipal,35.61666,-106.08333,Santa Fe,Y
SBM,Sheboygan County Memorial,43.76222,-87.85083,Sheboygan,Y
SCE,University Park,40.85047,-77.84705,State College,Y
SDY,Richland Municipal,47.70478,-104.19632,Sidney,Y
SEG,Penn Valley,40.82111,-76.86416,Selinsgrove,Y
SEP,Clark Field Regional,32.21666,-98.18333,Stephenville,Y
SHD,Shenandoah Valley Regional,38.26183,-78.89843,Staunton/Waynesborough,Y
SHS,Shashi,30.30186,112.44875,Jingzhou,Y
SHX,Shageluk,62.69235,-159.5689,Shageluk,Y
QXG,Angers Rail Station,47.46464,-0.55686,Angers,Y
ZLN,Le Mans Rail Station,47.99578,0.19176,Le Mans,Y
XOP,Poitiers Rail Station,46.58222,0.33305,Poitiers,Y
PIS,Poitiers Biard Airport,46.58749,0.30666,Poitiers,Y
CKN,Crookston Municipal,47.85,-96.61666,Crookston,Y
CKV,Montgomery County Regional,36.61666,-87.41666,Clarksville,Y
SIK,Sikeston Memorial Municipal,36.88333,-89.56666,Sikeston,Y
SIR,Sion,46.2224,7.33987,Sion,Y
SIU,Siuna,13.72886,-84.77741,Siuna,Y
SKK,Shaktoolik Municipal,64.36087,-161.20245,Shaktoolik,Y
SKW,Skwentna,61.96448,-151.18789,Skwentna,Y
SME,Lake Cumberland Regional,37.05417,-84.61495,Somerset,Y
SMK,Saint Michael,63.48084,-162.03074,St Michael,Y
SNB,Snake Bay,-11.33333,130.75,Milikapiti,Y
SNS,Salinas Municipal,36.66543,-121.60763,Salinas,Y
SNY,Sidney Municipal,41.1,-102.98333,Sidney,Y
SOO,Soderhamn,61.26666,17.1,Soderhamn,Y
SPF,Black Hills,44.48333,-103.85,Spearfish,Y
SPW,Spencer Municipal,43.16666,-95.18333,Spencer,Y
SQI,Whiteside County,41.74023,-89.68088,Sterling/Rock Falls,Y
SRH,Sarh,9.14608,18.3758,Sarh,Y
STJ,Rosecrans Field,39.76666,-94.91666,St Joseph,Y
STK,Sterling Municipal,40.61666,-103.26666,Sterling,Y
SUE,Door County Cherryland,44.83333,-87.41666,Sturgeon Bay,Y
SUW,Bong,46.68333,-92.09499,Superior,Y
SVC,Grant County,32.63239,-108.15628,Silver City,Y
SVH,Statesville Regional,35.76468,-80.95278,Statesville,Y
SVS,Stevens Village,66.01603,-149.06086,Stevens Village,Y
SXP,Sheldons Point,62.52145,-164.84663,Nunam Iqua,Y
SZK,Skukuza,-24.96444,31.59032,Skukuza,Y
SZS,Stewart Island,-46.8997,168.101,Stewart Island,Y
TBF,Tabiteuea North,-1.22451,174.77631,Tabiteuea North,Y
TBI,New Bight,24.31536,-75.45343,The Bight,Y
TBR,Bulloch County,32.48333,-81.75,Statesboro,Y
TEX,Telluride Municipal,37.95265,-107.90245,Telluride,Y
TFF,Tefe,-3.38316,-64.72398,Tefe,Y
TFI,Tufi,-9.07628,149.31986,Tufi,Y
TGT,Tanga,-5.09226,39.0715,Tanga,Y
TIX,Space Coast Regional,28.51666,-80.8,Titusville,Y
TJH,Tajima,35.51325,134.787,Toyooka,Y
TKE,Tanakee SPB,57.77944,-135.21722,Tenakee,Y
TLN,Le Palyvestre,43.09722,6.14611,Toulon/Hyeres,Y
HAY,Hacaritama,8.24639,-73.58029,Aguachica,Y
TLT,Tuluksak,61.09752,-160.96802,Tuluksak,Y
TNJ,Raja Haji Fisabilillah,0.92374,104.5329,Tanjung Pinang,Y
TNK,Tununak,60.57543,-165.27084,Tununak,Y
TOR,Torrington Municipal,42.05,-104.16666,Torrington,Y
TPL,Draughon-Miller,31.15,-97.4,Temple,Y
CLM,W. R. Fairchild International,48.11729,-123.4957,Port Angeles,Y
CNH,Claremont Municipal,43.36666,-72.36666,Claremont,Y
CNU,Martin Johnson,37.68333,-95.45,Chanute,Y
CNY,Canyon Land Field,38.76074,-109.74742,Moab,Y
COA,Columbia,38.03333,-120.41666,Columbia,Y
COD,Yellowstone Regional,44.5177,-109.02586,Cody,Y
NQZ,Nursultan Nazarbayev,51.02303,71.46694,Nur-Sultan,Y
CSQ,Creston Municipal,41.06666,-94.36666,Creston,Y
CSV,Memorial-Whitson Field,35.95,-85.08333,Crossville,Y
CTH,Chester County,39.96666,-75.81666,Coatesville,Y
ULH,Majeed Bin Abdulaziz,26.48972,38.10527,Al Ula,Y
JHW,Chautauqua County,42.15203,-79.25935,Jamestown,Y
JOS,Yakubu Gowon,9.63946,8.86997,Jos,Y
JOT,Joliet Regional,41.53333,-88.08333,Joliet,Y
TSH,Tshikapa,-6.44152,20.79613,Tshikapa,Y
TSP,Tehachapi Municipal,35.13529,-118.43982,Tehachapi,Y
FRY,Eastern Slopes Regional,43.99083,-70.9475,Fryeburg,Y
FST,Pecos County,30.91666,-102.91666,Fort Stockton,Y
FUL,Fullerton Municipal,33.8721,-117.97946,Fullerton,Y
FXY,Forest City Municipal,43.26666,-93.65,Forest City,Y
GAD,Northeast Alabama Regional,33.96666,-86.08333,Gadsden,Y
GAI,Montgomery Co Airpark,39.16833,-77.166,Gaithersburg,Y
GAS,Gassim,-0.46351,39.6483,Garissa,Y
GBD,Great Bend Municipal,38.35,-98.86666,Great Bend,Y
GBG,Galesburg Municipal,40.93333,-90.43333,Galesburg,Y
GBZ,Claris,-36.16666,175.33333,Great Barrier Island,Y
GCC,Campbell County,44.34748,-105.5414,Gillette,Y
GDV,Hilger Field,47.14039,-104.80928,Glendive,Y
GED,Sussex County,38.68333,-75.36666,Georgetown,Y
GFL,Floyd Bennett Memorial,43.33867,-73.60878,Glens Falls,Y
GIF,Winter Haven's Gilbert,28.06666,-81.75,Winter Haven,Y
GJT,Grand Junction Regional,39.12319,-108.52567,Grand Junction,Y
GLE,Gainesville Municipal,33.61666,-97.11666,Gainesville,Y
GLH,Mid-Delta,33.47721,-90.98499,Greenville,Y
GLR,Regional,45.01666,-84.7,Gaylord,Y
GLS,Scholes Intl,29.26666,-94.86666,Galveston,Y
GNU,Goodnews Bay,59.11757,-161.57587,Goodnews Bay,Y
GOB,Robe,7.11883,40.04496,Goba,Y
GON,Groton/New London,41.32966,-72.04383,Groton/New London,Y
VNZ,Vicenza Rail Station,45.54108,11.53847,Vicenza Rail Station,Y
GOZ,Gorna Oryahovitsa,43.15138,25.71277,Gorna Oryahovitsa,Y
GPZ,Itasca County,47.20841,-93.51087,Grand Rapids,Y
GQQ,Galion Municipal,40.73333,-82.8,Galion,Y
GRD,Greenwood County,34.25,-82.15,Greenwood,Y
GRE,Greenville,38.88333,-89.41666,Greenville,Y
GUC,Gunnison-Crested Butte,38.53538,-106.93294,Gunnison,Y
GUF,Jack Edwards,30.16666,-87.58333,Gulf Shores,Y
GUR,Gurney,-10.31123,150.33903,Alotau,Y
ULK,Lensk,60.72258,114.82173,Lensk,Y
CLI,Clintonville Municipal,44.61666,-88.76666,Clintonville,Y
GVT,Majors,33.13333,-96.11666,Greenville,Y
GWO,Greenwood Leflore,33.5,-90.2,Greenwood,Y
GXY,Weld County Municipal,40.33333,-104.61666,Greeley,Y
GYR,Phoenix Goodyear,33.42287,-112.37394,Goodyear,Y
HCC,Columbia County,42.29444,-73.71111,Hudson,Y
HCQ,Halls Creek,-18.23333,127.66666,Halls Creek,Y
HDE,Brewster Field,40.43333,-99.36666,Holdrege,Y
HEZ,Adams County,31.61666,-91.3,Natchez,Y
HHH,Hilton Head,32.22214,-80.69871,Hilton Head Island,Y
HIO,Hillsboro,45.53804,-122.9473,Portland,Y
HIS,Hayman Island Heliport,-20.05993,148.88339,Hayman Island,Y
HLM,Park Township,42.78333,-86.11666,Holland,Y
HMT,Ryan,33.75,-116.96666,Hemet,Y
HPT,Hampton Municipal,42.75,-93.2,Hampton,Y
HPY,Humphrey,29.73333,-94.96666,Baytown,Y
HQM,Bowerman,46.96666,-123.93333,Hoquiam/Aberdeen,Y
HSI,Hastings Municipal,40.6,-98.43333,Hastings,Y
HSP,Ingalls Field,37.95203,-79.83288,Hot Springs,Y
HTO,East Hampton,40.95897,-72.25095,East Hampton,Y
HUL,Houlton International,46.13333,-67.8,Houlton,Y
HUM,Terrebonne,29.58333,-90.66666,Houma,Y
HUS,Hughes,66.04298,-154.26097,Hughes,Y
HUT,Hutchinson Municipal,38.06666,-97.86666,Hutchinson,Y
HVR,City-County,48.54409,-109.75894,Havre,Y
HYR,Sawyer County,46.03333,-91.45,Hayward,Y
HYS,Hays Regional,38.85013,-99.27555,Hays,Y
HZL,Hazleton Regional,40.98333,-76,Hazleton,Y
ICL,Schenck Field,40.73333,-95.03333,Clarinda,Y
IDG,Ida Grove Municipal,42.35,-95.46666,Ida Grove,Y
IFN,Shahid Beheshti Intl,32.75154,51.86971,Esfahan,Y
IFP,Laughlin/Bullhead International,35.16189,-114.55984,Bullhead City,Y
IGM,Kingman Municipal,35.25665,-113.942,Kingman,Y
IIA,Inishmaan,53.09194,-9.57,Inishmaan,Y
IJX,Jacksonville Municipal,39.76666,-90.23333,Jacksonville,Y
IKI,Iki,33.75,129.78333,Iki,Y
IKK,Greater Kankakee,41.06666,-87.85,Kankakee,Y
IMT,Ford,45.81666,-88.11666,Iron Mountain/Kingsfd.,Y
INT,Smith Reynolds,36.13738,-80.22526,Winston-Salem,Y
INW,Lindbergh Regional,35.01666,-110.73333,Winslow,Y
IOR,Kilronan,53.10694,-9.65388,Inishmore,Y
OCM,Boolgeeda,-22.54,117.275,Boolgeeda,Y
IRS,Kirsch Municipal,41.8,-85.41666,Sturgis,Y
ISN,Sloulin Field,48.17904,-103.64321,Williston,Y
ISO,Kinston Regional Jetport,35.33333,-77.61666,Kinston,Y
ISW,South Wood County,44.3609,-89.83804,Wisconsin Rapids,Y
IWD,Gogebic-Iron County,46.52754,-90.13264,Ironwood,Y
IXK,Keshod,21.31666,70.26666,Keshod,Y
IYK,Inyokern,35.6546,-117.82869,Inyokern,Y
YIE,Yiershi,47.31,119.99416,Aershan,Y
OBU,Kobuk,66.91247,-156.89825,Kobuk,Y
OCF,Intl (Jim Taylor Fld),29.16891,-82.22301,Ocala,Y
SBP,San Luis County Rgnl,35.23717,-120.64064,San Luis Obispo,Y
OFK,Norfolk Regional,41.98333,-97.43333,Norfolk,Y
JEF,Jefferson City Memorial,38.6,-92.15,Jefferson City,Y
OGB,Orangeburg Municipal,33.45,-80.85,Orangeburg,Y
OGS,Ogdensburg International,44.68183,-75.46559,Ogdensburg,Y
OIR,Okushiri,42.07166,139.43279,Okushiri,Y
OLE,Cattaraugus County,42.24108,-78.37089,Olean,Y
OLF,L. M. Clayton,48.09468,-105.57576,Wolf Point,Y
OLM,Olympia Regional,46.96738,-122.90508,Olympia,Y
OLS,Nogales International,31.41804,-110.84733,Nogales,Y
OLU,Columbus Municipal,41.45,-97.33333,Columbus,Y
ONH,Oneonta Municipal,42.45,-75.11666,Oneonta,Y
ONL,O'Neill Municipal,42.46894,-98.68686,O'Neill,Y
ONO,Ontario Municipal,44.01666,-117.01666,Ontario,Y
ONS,Onslow,-21.66882,115.11231,Onslow,Y
ORI,Port Lions,57.88429,-152.85296,Port Lions,Y
ORV,R. (Bob) Curtis Mem.,66.81684,-161.02912,Noorvik,Y
OSH,Wittman Regional,43.98333,-88.55,Oshkosh,Y
OST,Oostende/Brugge,51.19972,2.87508,Oostende/Brugge,Y
OTG,Worthington Municipal,43.65,-95.58333,Worthington,Y
OTM,Ottumwa Regional,41.1,-92.45,Ottumwa,Y
OUN,Max Westheimer,35.15833,-97.46666,Norman,Y
OWD,Norwood Memorial,42.19166,-71.17603,Norwood,Y
OXC,Waterbury-Oxford,41.47861,-73.13527,Oxford,Y
OXD,Miami University,39.5,-84.73333,Oxford,Y
OXR,Oxnard Apt,34.2,-119.2,Oxnard/Ventura,Y
PAE,Snohomish County,47.91943,-122.2836,Everett,Y
PBF,Grider Field,34.18333,-91.93333,Pine Bluff,Y
OLJ,Lajmoli,-14.88159,166.55811,Olpoi,Y
HBG,Bobby L. Chain Municipal,31.26666,-89.25,Hattiesburg/Laurel,Y
HLG,Ohio County,40.18333,-80.65,Wheeling,Y
IOW,Iowa City Municipal,41.63986,-91.54912,Iowa City,Y
APC,Napa County,38.21333,-122.27999,Napa,Y
APV,Apple Valley,34.57832,-117.18666,Apple Valley,Y
DVN,Davenport Municipal,41.61666,-90.58333,Davenport,Y
ULZ,Donai,47.71025,96.52553,Uliastai,Y
BOW,Bartow Municipal,27.93333,-81.78333,Bartow,Y
ZGB,Nottingham Bus Station,52.95903,-1.14848,Nottingham,Y
EMA,Nottingham East Midlands Airport,52.8311,-1.32804,Nottingham,Y
ZVK,Savannakhet,16.56064,104.76368,Savannakhet,Y
MAN,Manchester International,53.35361,-2.27499,Manchester,Y
ONQ,Caycuma,41.50541,32.08858,Zonguldak,Y
HTL,Roscommon County,44.36638,-84.67499,Houghton Lake,Y
CSN,Carson Airport,39.2,-119.73333,Carson City,Y
XSH,Tours St-Pierre-Corps Rail Stn,47.38917,0.69384,Tours,Y
TUF,Tours Val de Loire Airport,47.43193,0.72304,Tours,Y
SJL,Sao Gabriel Cachoeira,-0.14952,-66.98655,Sao Gabriel Cachoeira,Y
BBG,Butaritari,3.08616,172.81057,Butaritari,Y
CEQ,Cannes Mandelieu,43.54638,6.95416,Cannes,Y
LAM,Los Alamos,35.88003,-106.27109,Los Alamos,Y
ZFQ,Bordeaux St-Jean Rail Station,44.81774,-0.56161,Bordeaux,Y
BOD,Bordeaux Merignac Apt,44.8286,-0.71527,Bordeaux,Y
ZFJ,Rennes Rail Station,48.10333,-1.6725,Rennes,Y
RNS,Rennes St Jacques Airport,48.07194,-1.73222,Rennes,Y
SBA,Santa Barbara Municipal,34.4261,-119.84027,Santa Barbara,Y
JQA,Qaarsut,70.73358,-52.69264,Qaarsut,Y
MNS,Mansa,-11.13819,28.8749,Mansa,Y
KJR,Karlsruhe/Baden-Baden Hbf Rail Station,48.99352,8.40222,Karlsruhe/Baden-Baden,Y
FKB,Karlsruhe/Baden-Baden Baden Airpark,48.77943,8.08054,Karlsruhe/Baden-Baden,Y
NUX,Novy Urengoy,66.07024,76.52044,Novy Urengoy,Y
MMX,Malmo Airport,55.54227,13.37484,Malmo,Y
QYU,Gavle C Rail Station,60.67599,17.15078,Gavle,Y
WUU,Wau,7.7257,27.97322,Wau,Y
QYX,Uppsala C Rail Station,59.8587,17.64606,Uppsala C Rail Station,Y
XEZ,Sodertalje S Rail Stn,59.15,17.63333,Sodertalje S Rail Stn,Y
KHE,Kherson,46.67709,32.50714,Kherson,Y
SCN,Saarbruecken Airport,49.21459,7.11038,Saarbrucken,Y
YJB,Barcelona Sants Rail Stn,41.37916,2.14,Barcelona,Y
BCN,Barcelona Apt,41.29694,2.07832,Barcelona,Y
YJD,Barcelona Franca Rail Stn,41.38416,2.18611,Barcelona,Y
BOA,Boma,-5.86666,13.06666,Boma,Y
KHK,Khark Island,29.26045,50.32207,Khark Island,Y
TCX,Tabas,33.66721,56.89314,Tabas,Y
QGY,Gyor Bus Station,47.68333,17.63333,Gyor Bus Station,Y
ONM,Socorro Municipal,34.05,-106.88333,Socorro,Y
QQK,London Kings Cross Rail Station,51.53333,-0.11666,London Kings Cross Rail Station,Y
VRA,Juan G Gomez Intl,23.03444,-81.43527,Varadero,Y
KSE,Kasese,0.18481,30.10179,Kasese,Y
PAF,Pakuba,2.20068,31.55143,Pakuba,Y
ZGD,Groton/New London Rail Station,41.35414,-72.0934,Groton/New London Rail Station,Y
ZRV,Providence Rail Station,41.82911,-71.41379,Providence Rail Station,Y
ZTF,Stamford Rail Station,41.04668,-73.54193,Stamford Rail Station,Y
ZVE,New Haven Rail Station,41.29758,-72.9267,New Haven Rail Station,Y
MGN,Baracoa,9.26666,-74.88333,Magangue,Y
EDA,Edna Bay Sea Plane Base,55.95,-133.66666,Edna Bay,Y
KPB,Point Baker Seaplane Base,56.35178,-133.62207,Point Baker,Y
NKI,Naukiti Bay Sea Plane Base,55.85555,-133.18333,Naukiti Bay,Y
PPV,Port Protection Sea Plane Base,56.32552,-133.60898,Port Protection,Y
VSF,Hartness State,43.34096,-72.51932,Springfield,Y
ZSF,Springfield Rail Station,42.10583,-72.5936,Springfield,Y
CEF,Springfield/Westover Metropolitan Apt,42.18867,-72.53753,Springfield,Y
BAF,Barnes Regional,42.15834,-72.71541,Westfield,Y
PBR,Puerto Barrios,15.73173,-88.5,Puerto Barrios,Y
XGZ,Bregenz Rail Station,47.50614,9.74855,Bregenz Rail Station,Y
TPY,Turin Porta Nuova Rail Station,45.062,7.67863,Turin,Y
TRN,Turin Caselle Airport,45.2025,7.64944,Turin,Y
BFG,Bullfrog Basin,37.55,-110.70833,Glen Canyon,Y
FPR,St Lucie County Intl,27.48333,-80.36666,Fort Pierce,Y
PRM,Portimao,37.14946,-8.58406,Portimao,Y
PPF,Tri-City,37.33333,-95.5,Parsons,Y
OBI,Obidos,-1.86817,-55.51511,Obidos,Y
ORX,Oriximina,-1.66666,-55.83333,Oriximina,Y
BDE,Baudette International,48.71666,-94.6,Baudette,Y
BLU,Blue Canyon-Nyack,39.26666,-120.7,Emigrant Gap,Y
CON,Concord Municipal,43.20277,-71.50222,Concord,Y
CTX,Cortland County,42.59324,-76.21407,Cortland,Y
GWS,Glenwood Springs Municipal,39.55,-107.31666,Glenwood Springs,Y
KBU,Gusti Sjamsir Alam,-3.29591,116.16446,Kotabaru,Y
ARX,Dragao do Mar,-4.56916,-37.80553,Aracati,Y
LKP,Lake Placid,44.26444,-73.96194,Lake Placid,Y
MAE,Madera Municipal,36.98333,-120.11666,Madera,Y
MCD,Mackinac Island,45.86666,-84.63333,Mackinac Island,Y
SUO,Sunriver,43.87638,-121.45305,Sunriver,Y
TRT,Toraja,-3.18556,119.91778,Mengkendek,Y
TLR,Mefford Field,36.33333,-119.3,Tulare,Y
ITU,Iturup,45.25638,147.95583,Iturup Island,Y
UKY,Downtown Heliport,35.03333,135.75,Kyoto,Y
KRS,Kristiansand Kjevik Airport,58.20416,8.08527,Kristiansand,Y
TRD,Trondheim Vaernes Airport,63.4575,10.92416,Trondheim,Y
TMA,Henry Tifton Myers,31.43333,-83.48333,Tifton,Y
MPY,Maripasoula,3.66666,-54.03333,Maripasoula,Y
XAU,Saul,3.61666,-53.2,Saul,Y
BVS,Breves,-1.66666,-50.46666,Breves,Y
BDD,Badu Island,-10.14987,142.17401,Badu Island,Y
CNC,Coconut Island,-10.05003,143.07143,Coconut Island,Y
MYI,Murray Island,-9.91517,144.05461,Murray Island,Y
NLF,Darnley Island,-9.57913,143.78021,Darnley Island,Y
SYU,Warraber Island,-10.2071,142.8236,Warraber Island,Y
UBB,Mabuiag Island,-9.9505,142.19537,Mabuiag Island,Y
XMY,Yam Island,-9.89895,142.77413,Yam Island,Y
ZMB,Hamburg Hbf Rail Station,53.55282,10.00666,Hamburg,Y
LBC,Hamburg Luebeck-Blankensee Airport,53.80527,10.71916,Hamburg,Y
HAM,Hamburg Airport,53.63027,9.98833,Hamburg,Y
XFW,Hamburg Finkenwerder,53.53583,9.83694,Hamburg,Y
QFB,Freiburg Rail Station,47.99762,7.84213,Freiburg Rail Station,Y
VRN,Verona Villafranca Airport,45.39638,10.88805,Verona,Y
VBS,Verona Brescia/Montichiari Airport,45.42888,10.33054,Verona,Y
DBN,W. H. 'Bud' Barron,32.55,-82.98333,Dublin,Y
VIC,Vicenza,45.57166,11.52694,Vicenza,Y
MOT,Minot International Apt,48.25944,-101.28027,Minot,Y
CRZ,Turkmenabat,39.08306,63.61194,Turkmenabat,Y
TAZ,Dashoguz,41.76159,59.84246,Dashoguz,Y
KEB,Nanwalek,59.35196,-151.92473,Nanwalek,Y
MRQ,Marinduque,13.36179,121.82519,Marinduque,Y
MFA,Mafia Island,-7.91262,39.66592,Mafia Island,Y
MVM,Kayenta,36.70277,-110.23333,Kayenta,Y
GIC,Boigu Island,-9.23278,142.2175,Boigu Island,Y
AND,Anderson Regional,34.5,-82.71666,Anderson,Y
TBT,Tabatinga International,-4.25575,-69.93593,Tabatinga,Y
SBR,Saibai Island,-9.37836,142.62499,Saibai Island,Y
VIF,Vieste Heliport,41.88505,16.17585,Vieste,Y
ESF,Alexandria Esler Regional Apt,31.4,-92.3,Alexandria,Y
AEX,Alexandria International Apt,31.32749,-92.54971,Alexandria,Y
MKO,Davis Field,35.66666,-95.36666,Muskogee,Y
WBU,Boulder Municipal Apt,40.03333,-105.23333,Boulder,Y
CAF,Carauari,-4.87083,-66.89711,Carauari,Y
ERN,Amaury Feitosa Tomaz,-6.63947,-69.87981,Eirunepe,Y
KFP,False Pass,54.84802,-163.40636,False Pass,Y
PML,Port Moller,56.00493,-160.56115,Port Moller,Y
TEF,Telfer,-21.71586,122.23095,Telfer,Y
MBZ,Maues,-3.41666,-57.66666,Maues,Y
HYG,Hydaburg Municipal,55.20524,-132.82801,Hydaburg,Y
FLG,Grand Canyon Flagstaff Pulliam,35.13833,-111.6711,Grand Canyon,Y
GCN,Grand Canyon National Park Apt,35.9525,-112.14694,Grand Canyon,Y
LYS,Lyon St-Exupery Apt,45.72554,5.0811,Lyon,Y
GNB,Lyon Grenoble-St Geoirs Apt,45.36305,5.33277,Lyon,Y
XYD,Lyon Part-Dieu Rail Station,45.76055,4.85944,Lyon,Y
NTL,Newcastle Williamtown Apt,-32.79499,151.83444,Newcastle,Y
SYD,Sydney Kingsford Smith Apt,-33.9461,151.17721,Sydney,Y
PYM,Plymouth Municipal,41.91124,-70.72866,Plymouth,Y
CJM,Chumphon,10.71136,99.36144,Chumphon,Y
CJU,Jeju International,33.51138,126.49305,Jeju,Y
ICN,Seoul Incheon International Airport,37.46916,126.45055,Seoul,Y
GMP,Seoul Gimpo International Airport,37.55833,126.79055,Seoul,Y
YAB,Arctic Bay,73.00588,-85.03251,Arctic Bay,Y
MTE,Monte Alegre,-2.01666,-54.06666,Monte Alegre,Y
SLB,Storm Lake Municipal,42.6,-95.23333,Storm Lake,Y
OTS,Anacortes,48.5,-122.61666,Anacortes,Y
SCH,Schenectady County,42.85416,-73.92916,Schenectady,Y
XXZ,Sundsvall/Harnosand C Rail Station,62.38666,17.31611,Sundsvall/Harnosand C Rail Station,Y
XYK,Norrkoping C Rail Station,58.59642,16.18348,Norrkoping C Rail Station,Y
XYP,Avesta Krylbo Rail Station,60.12961,16.21671,Avesta Krylbo Rail Station,Y
XYX,Sala Rail Station,59.92492,16.6066,Sala Rail Station,Y
XXU,Hedemora Rail Station,60.27415,15.98041,Hedemora Rail Station,Y
YPY,Fort Chipewyan Municipal,58.76809,-111.11573,Fort Chipewyan,Y
AGH,Angelholm/Helsingborg Angelholm Apt,56.2961,12.84721,Angelholm/Helsingborg,Y
FRG,Republic,40.72933,-73.41434,Farmingdale,Y
KJK,Wevelgem,50.81722,3.20472,Kortrijk,Y
ION,Impfondo,1.61666,18.06666,Impfondo,Y
LUH,Ludhiana,30.85395,75.95347,Ludhiana,Y
OUE,Ouesso,1.61666,16.03333,Ouesso,Y
LKH,Long Akah,3.31182,114.78676,Long Akah,Y
CMJ,Qimei,23.25,119.41666,Qimei,Y
KNH,Shangyi,24.42946,118.36162,Kinmen,Y
WOT,Wang'an,23.41666,119.5,Wang'an,Y
WWP,North Whale SPB,56.11666,-133.12499,Whale Pass,Y
IAA,Igarka,67.43333,86.63333,Igarka,Y
ELY,Yelland Field,39.3,-114.85,Ely,Y
CDZ,Cadiz Rail Station,36.52944,-6.28861,Cadiz Rail Station,Y
HEV,Huelva Rail Station,37.25304,-6.95099,Huelva Rail Station,Y
RNT,Renton Municipal,47.52871,-122.3013,Renton,Y
XYB,Borlange Rail Station,60.48286,15.42628,Borlange Rail Station,Y
UKA,Diani,-4.2964,39.57119,Ukunda,Y
OMK,Omak,48.4,-119.53333,Omak,Y
LGD,Union County,45.31666,-118.03333,La Grande,Y
RBG,Roseburg Regional,43.23333,-123.35,Roseburg,Y
XZP,Pass (Generic) Rail Station,46.80325,-71.25196,Pass (Generic) Rail Station,Y
AEU,Abu Musa Island,25.87547,55.0323,Abu Musa Island,Y
BBB,Benson Municipal,45.33271,-95.65124,Benson,Y
KTD,Kitadaito,25.94467,131.32703,Kitadaito,Y
MMD,Minamidaito,25.847,131.26381,Minamidaito,Y
TRA,Tarama,24.65386,124.67528,Tarama,Y
TWD,Jefferson County Intl,48.11666,-122.76666,Port Townsend,Y
IHR,Iranshahr,27.23611,60.71991,Iranshahr,Y
MQS,Mustique International,12.8882,-61.17903,Mustique,Y
UNI,Union Island,12.61666,-61.43333,Union Island,Y
JEE,Jeremie,18.66666,-74.16666,Jeremie,Y
JUI,Juist,53.6811,7.05583,Juist,Y
WMX,Wamena,-4.09985,138.9535,Wamena,Y
HGO,Korhogo,9.38703,-5.55718,Korhogo,Y
ZLP,Zurich HB Rail Station,47.37773,8.54034,Zurich,Y
ZRH,Zurich Airport,47.46472,8.54916,Zurich,Y
COE,Pappy Boyington Field,47.76666,-116.81666,Coeur D'Alene,Y
TLU,Golfo de Morrosquillo,9.51181,-75.58663,Tolu,Y
KYN,Milton Keynes Central Rail Stn,52.03407,-0.77432,Milton Keynes Central Rail Stn,Y
XNE,Newport Rail Station,51.58881,-3.00046,Newport Rail Station,Y
XPT,Preston Rail Station,53.75537,-2.70716,Preston Rail Station,Y
XQL,Lancaster Rail Station,54.04872,-2.80764,Lancaster Rail Station,Y
XRE,Reading Rail Station,51.45915,-0.97271,Reading Rail Station,Y
XVC,Crewe Rail Station,53.08921,-2.43283,Crewe Rail Station,Y
QRW,Osubi,5.59888,5.82027,Warri,Y
AKH,Prince Sultan Air Base,24.06333,47.58054,Al Kharj,Y
MJI,Mitiga,32.89306,13.28949,Tripoli,Y
SPY,San Pedro,4.74649,-6.6606,San Pedro,Y
INA,Inta,66.05541,60.11012,Inta,Y
XWF,Borlange/Falun C Rail Station,60.60347,15.64195,Borlange/Falun C Rail Station,Y
LTX,Cotapaxi International,-0.90734,-78.61568,Latacunga,Y
BFX,Bafoussam,5.53726,10.35407,Bafoussam,Y
HHR,Hawthorne Municipal,33.92277,-118.33463,Hawthorne,Y
TWT,Tawitawi,5.0449,119.74244,Tawitawi,Y
CYZ,Cauayan,16.92865,121.75519,Cauayan,Y
SMN,Lemhi County,45.18333,-113.91666,Salmon,Y
JAR,Jahrom,28.58655,53.57878,Jahrom,Y
NRR,J. Aponte de la Torre,18.25,-65.63333,Ceiba,Y
KMU,Kisimayu,-0.37699,42.45932,Kisimayu,Y
MGC,Michigan City Municipal,41.7,-86.81666,Michigan City,Y
MVF,Dix Sept Rosado,-5.20055,-37.36354,Mossoro,Y
XDS,Ottawa Rail Station,45.31943,-75.66943,Ottawa,Y
YND,Ottawa Gatineau Airport,45.45963,-75.644,Ottawa,Y
YOW,Ottawa McDonald - Cartier Intl Apt,45.32249,-75.66916,Ottawa,Y
OAL,Capital do Cafe,-11.43305,-61.47769,Cacoal,Y
SUA,Witham,27.18478,-80.21973,Stuart,Y
QLJ,Lucerne Rail Station,47.04931,8.31049,Lucerne Rail Station,Y
QLS,Lausanne Rail Station,46.51703,6.62909,Lausanne Rail Station,Y
HKG,Hong Kong International Apt,22.30888,113.91472,Hong Kong,Y
BST,Bost,31.5602,64.36483,Lashkar Gah,Y
TII,Tereen,32.607,65.86314,Tarin Kot,Y
TNP,Twentynine Palms,34.13333,-116.05,Twentynine Palms,Y
YKN,Chan Gurney Municipal,42.91666,-97.38333,Yankton,Y
ONA,Winona Municipal,44.08333,-91.65,Winona,Y
RME,Griffiss International,43.23242,-75.40562,Rome,Y
SFZ,North Central State,41.92083,-71.49138,Pawtucket,Y
STE,Stevens Point Municipal,44.55,-89.53333,Stevens Point,Y
TRL,Terrell Municipal,32.7108,-96.26711,Terrell,Y
ASS,Arathusa Safari Lodge,-24.7409,31.51826,Arathusa Safari Lodge,Y
CXL,Calexico International,32.66666,-115.51666,Calexico,Y
VCV,S. Calif. Logistics Apt,34.5904,-117.37827,Victorville,Y
DHI,Dhangarhi,28.75454,80.58239,Dhangarhi,Y
BYC,Yacuiba,-21.96089,-63.65178,Yacuiba,Y
YLE,Whati,63.132,-117.24726,Whati,Y
VKO,Moscow Vnukovo International Apt,55.59166,37.26138,Moscow,Y
SVO,Moscow Sheremetyevo International Apt,55.97277,37.41472,Moscow,Y
DME,Moscow Domodedovo Apt,55.40888,37.90638,Moscow,Y
MNZ,Manassas Regional,38.72182,-77.51434,Manassas,Y
GVL,Lee Gilmar,34.26666,-83.83333,Gainesville,Y
SOW,Show Low Regional,34.26666,-110,Show Low,Y
CLV,Nelson R. Guimaraes,-17.72471,-48.61,Caldas Novas,Y
DET,Detroit Coleman A.Yound Muni,42.4,-83,Detroit,Y
DTW,Detroit Metropolitan Wayne County,42.2125,-83.35333,Detroit,Y
YIP,Detroit Willow Run Apt,42.23805,-83.53027,Detroit,Y
PTX,Pitalito,1.8569,-76.08689,Pitalito,Y
ZYA,Amsterdam Central Rail Station,52.37881,4.90044,Amsterdam Central Rail Station,Y
ZYH,Hague Centraal Rail Station,52.08166,4.32916,Hague Centraal Rail Station,Y
XWC,Vienna Hauptbahnhof Rail Station,48.1852,16.3765,Vienna Hauptbahnhof Rail Station,Y
NTQ,Noto,37.29229,136.95862,Wajima,Y
YBI,Black Tickle,53.46946,-55.78637,Black Tickle,Y
YHA,Port Hope Simpson,52.52811,-56.28463,Port Hope Simpson,Y
YHG,Charlottetown,52.76588,-56.11235,Charlottetown,Y
YRG,Rigolet,54.17934,-58.45734,Rigolet,Y
YSO,Postville,54.9098,-59.78589,Postville,Y
MKZ,Malacca,2.26353,102.25167,Malacca,Y
XIK,Milan Centrale Rail Station,45.4858,9.20429,Milan,Y
MXP,Milan Malpensa Apt,45.63,8.72305,Milan,Y
LIN,Milan Linate Apt,45.44944,9.27832,Milan,Y
PMF,Milan Parma Apt,44.82221,10.29527,Milan,Y
BGY,Milan Bergamo/Orio al Serio Apt,45.66888,9.70027,Milan,Y
IMR,Milan Rogoredo Rail Stn,45.43333,9.23833,Milan,Y
GCH,Gachsaran,30.33611,50.82994,Gachsaran,Y
DNV,Vermilion Regional,40.2,-87.58333,Danville,Y
BQU,Bequia,12.98333,-61.25,Bequia,Y
LKY,Lake Manyara,-3.37539,35.81796,Lake Manyara,Y
SEU,Seronera,-2.45705,34.82174,Seronera,Y
TTQ,Tortuguero,10.35119,-83.62949,Tortuguero,Y
CHH,Chachapoyas,-6.2019,-77.85631,Chachapoyas,Y
EWK,City-County,38.05,-97.35,Newton,Y
PIM,Harris County,32.83333,-84.85,Pine Mountain,Y
XZN,Avignon TGV Rail Station,43.92166,4.78583,Avignon,Y
AVN,Avignon Caumont Airport,43.90666,4.90194,Avignon,Y
XPJ,Montpellier St-Roch Rail Stn,43.60472,3.88111,Montpellier,Y
MPL,Montpellier Mediterranee Apt,43.58333,3.96138,Montpellier,Y
XRF,Marseille St Charles Rail Stn,43.30265,5.38077,Marseille,Y
MRS,Marseille Provence Apt,43.43666,5.215,Marseille,Y
STS,Charles M. Schulz,38.51045,-122.81008,Santa Rosa,Y
XZJ,Rail (Generic) Rail Station,35.66666,139.75,Rail (Generic) Rail Station,Y
HZK,Husavik,65.9525,-17.42583,Husavik,Y
VUU,Mvuu Camp,-14.83851,35.30167,Liwonde,Y
ZMY,Huangpu,23.09443,113.43977,Huangpu,Y
JZH,Jiuzhai Huanglong,32.85666,103.68304,Jiuzhaigou,Y
ZBL,Biloela,-24.4,150.5,Biloela,Y
XHJ,Aachen Hbf Rail Station,50.7681,6.09108,Aachen Hbf Rail Station,Y
GNM,Guanambi,-14.21666,-42.78333,Guanambi,Y
TXF,Teixeira de Freitas,-17.52433,-39.66916,Teixeira de Freitas,Y
GSI,Grand Santi,4.28433,-54.37849,Grand Santi,Y
KVX,Pobedilovo,58.50058,49.3421,Kirov,Y
QXB,Aix-en-Provence TGV Rail Station,43.52287,5.44526,Aix-en-Provence TGV Rail Station,Y
CBH,Boudghene B. Ali Lotfi,31.64598,-2.27883,Bechar,Y
TMX,Timimoun,29.23689,0.27668,Timimoun,Y
QDU,Duesseldorf Hbf Rail Station,51.22016,6.793,Duesseldorf,Y
DUS,Duesseldorf International Airport,51.28944,6.76666,Duesseldorf,Y
NRN,Duesseldorf Weeze Airport,51.6025,6.14221,Duesseldorf,Y
JUZ,Quzhou,28.96695,118.89976,Quzhou,Y
FUG,Xiguan,32.88079,115.73355,Fuyang,Y
WME,Mount Keith,-27.28679,120.55369,Mount Keith,Y
HBX,Hubli,15.36163,75.08691,Hubli,Y
XXQ,Budapest Keleti Rail Station,47.50027,19.08388,Budapest Keleti Rail Station,Y
XYG,Prague Main Rail Station,50.08333,14.46666,Prague Main Rail Station,Y
LOO,L'Mekrareg,33.76451,2.92747,Laghouat,Y
TID,Bou Chekif,35.34145,1.46688,Tiaret,Y
NTB,Notodden,59.56608,9.21183,Notodden,Y
CDW,Essex County,40.87516,-74.28067,Caldwell,Y
SYJ,Sirjan,29.55329,55.66922,Sirjan,Y
NAP,Naples Capodichino Apt,40.88444,14.29083,Naples,Y
INP,Naples Central Rail Stn,40.85222,14.27305,Naples,Y
POU,Dutchess County,41.62768,-73.88232,Poughkeepsie,Y
AJY,Manu Dayak Intl,16.96239,7.99011,Agadez,Y
RMQ,Cingcyuangang,24.265,120.62082,Taichung,Y
MZW,Mecheria,33.53568,-0.24237,Mecheria,Y
IAR,Tunoshna,57.55883,40.15765,Yaroslavl,Y
YNP,Natuashish,55.91388,-61.18444,Natuashish,Y
NEU,Sam Neua,20.41855,104.06743,Sam Neua,Y
PCQ,Boun Neua,21.64633,101.89973,Phongsaly,Y
PZI,Bao'angong,26.53999,101.79805,Panzhihua,Y
ZFZ,Buffalo-Depew Rail Station,42.90612,-78.72614,Buffalo-Depew Rail Station,Y
ZRD,Staples Mill Road Rail Station,37.61729,-77.49678,Richmond Rail Station,Y
ZRL,Lancaster Rail Station,40.05361,-76.3075,Lancaster Rail Station,Y
ZTD,Schenectady Rail Station,42.81527,-73.94333,Schenectady Rail Station,Y
ZTE,Rochester NY Rail Station,43.16277,-77.60916,Rochester NY Rail Station,Y
ZUA,Utica Rail Station,43.10388,-75.22443,Utica Rail Station,Y
ZWB,Newport News/Williamsburg Willb. RR Stn,37.2761,-76.70848,Newport News/Williamsburg Willb. RR Stn,Y
ZWW,Newport News/Williamsburg Newp. RR Stn,37.02233,-76.45164,Newport News/Williamsburg Newp. RR Stn,Y
ZYQ,Syracuse NY Rail Station,43.07006,-76.03693,Syracuse NY Rail Station,Y
PKX,Beijing Daxing Intl.,39.50995,116.41087,Beijing,Y
PEK,Beijing Capital Intl Apt,40.07999,116.58444,Beijing,Y
PVG,Shanghai Pudong International Apt,31.14333,121.80527,Shanghai,Y
SHA,Shanghai Hongqiao International Apt,31.19777,121.33638,Shanghai,Y
MYL,McCall Municipal,44.88972,-116.102,McCall,Y
MNC,Nacala,-14.48578,40.71233,Nacala,Y
BDT,Gbadolite,4.25472,20.97193,Gbadolite,Y
IXI,Lilabari,27.2942,94.09613,Lilabari,Y
SHL,Barapani,25.70351,91.97743,Shillong,Y
AEG,Aek Godang,1.3998,99.42991,Aek Godang,Y
GNS,Binaka,1.16672,97.70443,Gunung Sitoli,Y
MFK,Matsu (Beigan),26.22382,120.00264,Matsu (Beigan),Y
LZN,Matsu (Nangan),26.15944,119.95833,Matsu (Nangan),Y
GNI,Lyndao (Green Island),22.6739,121.466,Lyndao (Green Island),Y
KYD,Lanyu (Orchid Island),22.08333,121.5,Lanyu (Orchid Island),Y
BYO,Bonito,-21.24696,-56.45242,Bonito,Y
CLR,Cliff Hatfield Mem.,33.13333,-115.51666,Calipatria,Y
FOA,Foula,60.12218,-2.05354,Foula,Y
CXR,Nha Trang Cam Ranh Airport,11.99805,109.21916,Nha Trang,Y
RCU,Las Higueras,-33.09439,-64.26134,Rio Cuarto,Y
TEQ,Tekirdag,41.13879,27.91943,Tekirdag,Y
SZV,Guangfu,31.2631,120.401,Suzhou,Y
HUZ,Huizhou,23.04862,114.6002,Huizhou,Y
HVS,Hartsville Regional,34.4,-80.11666,Hartsville,Y
QNQ,Nijmegen Rail Station,51.84333,5.8525,Nijmegen Rail Station,Y
VRL,Vila Real,41.27598,-7.72036,Vila Real,Y
ZTJ,Princeton/Rocky Hill Jct Rail Station,40.31635,-74.62458,Princeton/Rocky Hill Jct Rail Station,Y
ADL,Adelaide International,-34.94499,138.53054,Adelaide,Y
ASP,Alice Springs Airport,-23.80666,133.90222,Alice Springs,Y
DRW,Darwin International,-12.41472,130.87666,Darwin,Y
MMZ,Maimanah,35.92561,64.76573,Maimanah,Y
TZN,South Andros,24.69704,-77.79584,South Andros,Y
AJN,Ouani,-12.13102,44.42964,Anjouan,Y
LPK,Lipetsk,52.6374,39.45184,Lipetsk,Y
PVU,Provo Municipal,40.21885,-111.72239,Provo,Y
AIR,Aripuana,-10.19104,-59.4568,Aripuana,Y
SBT,Sabetta,71.25089,72.10157,Sabetta,Y
BPG,Barra do Garcas,-15.86246,-52.39019,Barra do Garcas,Y
CFO,Confresa,-10.63333,-51.56666,Confresa,Y
JIA,Juina,-11.4197,-58.71,Juina,Y
SXO,Sao Felix do Araguaia,-11.63245,-50.68885,Sao Felix do Araguaia,Y
TGQ,Tangara da Serra,-14.65888,-57.44444,Tangara da Serra,Y
BXG,Bendigo,-36.73471,144.3186,Bendigo,Y
BJW,Soa,-8.70759,121.05769,Bajawa,Y
BXB,Babo,-2.53499,133.43881,Irarutu,Y
DOB,Rar Gwamar,-5.77258,134.21107,Dobo,Y
EWE,Ewer,-5.48333,138.06666,Ewer,Y
GLX,Gamarmalamo,1.83751,127.78571,Galela,Y
KAZ,Kaubang,1.18461,127.89604,Kau,Y
LAH,Oesman Sadik,-0.63453,127.50399,Labuha,Y
LKA,Gewayantana,-8.27415,123.00039,Larantuka,Y
LWE,Wunopito,-8.36193,123.43845,Lewoleba,Y
MNA,Melangguane,4.00654,126.67338,Melangguane,Y
OKL,Gunung Bintang,-4.9082,140.63049,Oksibil,Y
OTI,Pitu,2.05,128.31666,Morotai Island,Y
RTG,Frans Sales Lega,-8.59609,120.47798,Ruteng,Y
RTI,David C. Saudale,-10.76686,123.07505,Roti,Y
SXK,Olilit,-7.988,131.3049,Saumlaki,Y
TLI,Lalos,1.12356,120.7932,Tolitoli,Y
TMH,Tanahmerah,-6.09726,140.30303,Tanahmerah,Y
UOL,Pogogul,1.10472,121.41527,Buol,Y
ZRI,S. Condronegoro,-1.87396,136.2395,Serui,Y
LCX,Guanzhishan,25.67554,116.74555,Longyan,Y
GYD,Baku Heydar Aliyev International Apt,40.46749,50.04666,Baku,Y
QWU,Wuerzburg Rail Station,49.78839,9.93628,Wuerzburg Rail Station,Y
BUW,Betoambari,-5.48734,122.5687,Baubau,Y
LRU,Las Cruces International,32.3,-106.93333,Las Cruces,Y
RVT,Ravensthorpe,-33.79696,120.21025,Ravensthorpe,Y
SAE,Saatut Heliport,70.80861,-51.62666,Saatut,Y
BPT,Beaumont/Port Arthur J. Brooks Regional,29.95083,-94.02082,Beaumont/Port Arthur,Y
BMT,Beaumont/Port Arthur Municipal Apt,30.0706,-94.21565,Beaumont/Port Arthur,Y
LAX,Los Angeles International Apt,33.94249,-118.40805,Los Angeles,Y
ONT,Ontario International Apt,34.05611,-117.60111,Los Angeles,Y
VNY,Los Angeles Van Nuys Apt,34.20592,-118.49004,Los Angeles,Y
LED,St Petersburg Pulkovo Apt,59.80027,30.2625,St Petersburg,Y
LEX,Lexington Blue Grass Apt,38.03638,-84.60583,Lexington,Y
XHN,Liege Guillemins Rail Station,50.62434,5.56645,Liege,Y
LGG,Liege Apt,50.6375,5.44333,Liege,Y
MGM,Montgomery Regional-Dannelly Fld,32.30055,-86.39388,Montgomery,Y
JCI,Kansas City New Century Aircenter Apt,38.84796,-94.73762,Kansas City,Y
MCI,Kansas City International Apt,39.29749,-94.71388,Kansas City,Y
MKC,Kansas City C B Wheeler Downtown Apt,39.12252,-94.5932,Kansas City,Y
OJC,Kansas City Johnson Co Executive Apt,38.85,-94.73333,Kansas City,Y
PWA,Oklahoma City Wiley Post Apt,35.53485,-97.64552,Oklahoma City,Y
OKC,Oklahoma City Will Rogers Apt,35.39305,-97.60083,Oklahoma City,Y
SSF,San Antonio Stinson Apt,29.53304,-98.46666,San Antonio,Y
SAT,San Antonio International Apt,29.5336,-98.46971,San Antonio,Y
LOU,Louisville Bowman Field Airport,38.17718,-85.73741,Louisville,Y
SDF,Louisville Intl-Standiford Field,38.17443,-85.7361,Louisville,Y
SDQ,Santo Domingo Las Americas Intl,18.42971,-69.66888,Santo Domingo,Y
JBQ,Santo Domingo Dr. J Balaguer,18.57221,-69.98555,Santo Domingo,Y
SPS,Wichita Falls Municipal/Sheppard AFB,33.98888,-98.49194,Wichita Falls,Y
VVI,Santa Cruz Viru Viru International Apt,-17.64471,-63.13527,Santa Cruz,Y
SUN,Sun Valley Friedman Memorial Apt,43.50545,-114.29712,Hailey/Sun Valley,Y
HKY,Hickory Regional,35.73333,-81.38333,Hickory,Y
TSM,Taos Regional,36.46666,-105.66666,Taos,Y
XJD,"Al Udeid, Air Base",25.11583,51.31527,Al Udeid,Y
MEB,Melbourne Essendon Apt,-37.73333,144.9,Melbourne,Y
AVV,Melbourne Avalon Airport,-38.03944,144.46943,Melbourne,Y
MEL,Melbourne Airport,-37.67332,144.84333,Melbourne,Y
AGM,Angmagssalik,65.61228,-37.61834,Tasiilaq,Y
HUU,Huanuco,-9.87976,-76.20695,Huanuco,Y
NKM,Nagoya Komaki Airport,35.255,136.92443,Nagoya,Y
NGO,Nagoya Chubu Centrair International Apt,34.85833,136.80527,Nagoya,Y
ZYK,Shenzhen Shekou Ferry Port,22.47759,113.91336,Shenzhen Shekou Ferry Port,Y
YCU,Guangong,35.11638,111.0336,Yuncheng,Y
VCL,Chulai,15.40745,108.70712,Tamky,Y
UKX,Ust-Kut,56.85706,105.73144,Ust-Kut,Y
TDK,Taldykorgan,45.12269,78.44277,Taldykorgan,Y
GYY,Chicago Gary International,41.61628,-87.41278,Chicago,Y
RFD,Chicago/Rockford International,42.19782,-89.09902,Chicago,Y
ORD,Chicago O'Hare International Apt,41.9786,-87.90472,Chicago,Y
MDW,Chicago Midway Intl,41.7861,-87.7525,Chicago,Y
DPA,Chicago Dupage,41.90674,-88.25411,Chicago,Y
PWK,Chicago Executive,42.11418,-87.90235,Chicago,Y
ZDH,Basel/Mulhouse SBB Rail Station,47.54757,7.58966,Basel/Mulhouse,Y
MLH,Mulhouse,47.60083,7.52916,Basel/Mulhouse,Y
ZBA,Basel Bad Rail Station,47.56762,7.60808,Basel/Mulhouse,Y
BSL,Basel,47.60087,7.52155,Basel/Mulhouse,Y
NZH,Xijiao,49.56655,117.33042,Manzhouli,Y
UND,Kunduz,36.66501,68.91043,Kunduz,Y
ZAJ,Zaranj,30.97125,61.86618,Zaranj,Y
DRB,Derby Airport,-17.37194,123.66227,Derby,Y
BNH,Boston Harbour SPB,42.35985,-71.02773,Boston,Y
PSM,Portsmouth Pease International Airport,43.07804,-70.82332,Boston,Y
BOS,Boston Edward L Logan Intl Apt,42.36444,-71.00527,Boston,Y
ZTY,Boston BKbay Rail Station,42.34749,-71.07693,Boston,Y
ZRU,Boston RT128 Rail Station,42.23685,-71.13271,Boston,Y
ZTO,Boston South Rail Station,42.35183,-71.05582,Boston,Y
JGS,Jinggangshan,26.85758,114.73638,Ji'an,Y
IKA,Tehran Imam Khomeini International Apt,35.41611,51.15222,Tehran,Y
THR,Tehran Mehrabad International Airport,35.68888,51.31472,Tehran,Y
LRV,Los Roques,11.9471,-66.67152,Los Roques,Y
ARD,Mali,-8.13288,124.5967,Alor,Y
WUA,Wuhai,39.79231,106.79938,Wuhai,Y
VCA,Cantho,10.05135,105.76325,Cantho,Y
BDP,Bhadrapur,26.57052,88.08005,Bhadrapur,Y
JKR,Janakpur,26.7088,85.92407,Janakpur,Y
ITM,Osaka Intl (Itami),34.78555,135.43833,Osaka,Y
UKB,Osaka Kobe Airport,34.63277,135.22388,Osaka,Y
KIX,Osaka Kansai International Airport,34.42721,135.24416,Osaka,Y
YBZ,Toronto Downtown Rail Station,43.64519,-79.38069,Toronto,Y
YYZ,Toronto Lester B Pearson Intl,43.67721,-79.63054,Toronto,Y
YHM,Toronto John C Munro Hamilton,43.16184,-79.92787,Toronto,Y
YTZ,Toronto Billy Bishop City A/P,43.62749,-79.3961,Toronto,Y
YKF,Toronto Region of Waterloo Int,43.46083,-80.37861,Toronto,Y
ORH,Worcester Regional,42.26644,-71.87391,Worcester,Y
PYG,Pakyong,27.22777,88.58694,Gangtok,Y
ISL,Istanbul Ataturk Airport,40.97692,28.81473,Istanbul,Y
SAW,Istanbul Sabiha Gokcen Apt,40.8986,29.30916,Istanbul,Y
IST,Istanbul Airport,41.27037,28.74241,Istanbul,Y
TLC,Mexico City Toluca-A.Lopez Mateos,19.33694,-99.56611,Mexico City,Y
MEX,Mexico City Juarez Intl,19.43638,-99.07221,Mexico City,Y
BZO,Dolomiti,46.46064,11.32659,Bolzano/Bozen,Y
TZL,Tuzla International,44.4585,18.72547,Tuzla,Y
LLF,Lingling,26.34166,111.60874,Yongzhou,Y
ZRQ,SBB Rail Zone 1 Off-Line Point,47.45,9.38333,SBB Rail Zone 1 Off-Line Point,Y
GIU,Sigiriya Slaf Base,7.95603,80.72833,Sigiriya,Y
KDW,Victoria Reservoir SPB,7.26388,80.76361,Kandy Victoria Reservoir SPB,Y
MUZ,Musoma,-1.5,33.8,Musoma,Y
NUF,Castlereigh Reservoir SPB,6.857,80.58805,Hatton SPB,Y
TRR,China Bay,8.53969,81.18191,Trincomalee,Y
AID,Anderson Municipal,40.1,-85.66666,Anderson,Y
BMG,Monroe County,39.14235,-86.6152,Bloomington,Y
EKI,Elkhart Municipal,41.71666,-85.98333,Elkhart,Y
GSH,Goshen Municipal,41.52638,-85.79416,Goshen,Y
HNB,Huntingburg,38.3,-86.95,Huntingburg,Y
HUF,International (Hulman Field),39.45,-87.3,Terre Haute,Y
LAF,Purdue University,40.41666,-86.93333,Lafayette,Y
MIE,Delaware County Regional,40.24212,-85.39763,Muncie,Y
MZZ,Marion Municipal,40.48333,-85.68333,Marion,Y
OKK,Kokomo Municipal,40.53333,-86.06666,Kokomo,Y
RID,Richmond Municipal,39.75,-84.85,Richmond,Y
SMD,Fort Wayne Smith Field,40.98333,-85.18333,Fort Wayne,Y
FWA,Fort Wayne International,40.98282,-85.18948,Fort Wayne,Y
ACX,Xingyi,25.08555,104.95944,Xingyi,Y
XJV,Ostrava Main Rail Station,49.85066,18.26724,Ostrava Main Rail Station,Y
LOH,Catamayo,-3.99573,-79.37158,Loja,Y
AVA,Huangguoshu,26.25722,105.87277,Anshun,Y
XIX,Verona Porta Nuova Rail Station,45.45,11,Verona Porta Nuova Rail Station,Y
QKB,Breckenridge Bus Station,39.76943,-104.88333,Breckenridge Bus Station,Y
XXO,Leksand Rail Station,60.73388,15.00273,Leksand Rail Station,Y
PIE,Tampa St Pete-Clearwater Intl Apt,27.91027,-82.68749,Tampa,Y
TPA,Tampa International Apt,27.97554,-82.53333,Tampa,Y
CLW,Tampa Clearwater Air Park,27.90277,-82.6861,Tampa,Y
TPF,Tampa Peter O. Knight Apt,27.97043,-82.52218,Tampa,Y
SPG,Tampa St Pete-Albert Whitted,27.7651,-82.62936,Tampa,Y
ISK,Gandhinagar,19.9639,73.8075,Nasik,Y
FAH,Farah,32.36594,62.16529,Farah,Y
HOH,Hohenems/Dornbirn,47.38444,9.69972,Hohenems/Dornbirn,Y
BQB,Busselton,-33.68724,115.4021,Busselton,Y
BRK,Bourke,-30.04041,145.94643,Bourke,Y
CAZ,Cobar,-31.53744,145.79427,Cobar,Y
DGE,Mudgee,-32.565,149.60932,Mudgee,Y
QQM,Manchester Piccadilly Rail Station,53.46666,-2.23333,Manchester Piccadilly Rail Station,Y
LHG,Lightning Ridge,-29.4,147.96666,Lightning Ridge,Y
QVL,Villach Rail Station,46.61888,13.84888,Villach Rail Station,Y
PHB,Joao Silva Filho Intl,-2.89331,-41.73087,Parnaiba,Y
WGE,Walgett,-30.03333,148.13333,Walgett,Y
EWR,Newark Liberty International Apt,40.69249,-74.1686,New York,Y
LGA,New York LaGuardia Apt,40.77721,-73.87249,New York,Y
JFK,New York J F Kennedy International Apt,40.63971,-73.77888,New York,Y
SWF,New York Stewart International,41.50416,-74.10472,New York,Y
ZYP,New York Penn Rail Station,40.75044,-73.99348,New York,Y
ZRP,New York/Newark NJ Penn Rail Stn,40.7346,-74.16456,New York,Y
YBE,Uranium City,59.56155,-108.47994,Uranium City,Y
TGC,Tanjung Manis,2.17777,111.20194,Tanjung Manis,Y
XZF,Dammam Harbour,26.5,50.2,Dammam Harbour,Y
YZZ,Trail,49.05555,-117.60916,Trail,Y
SOP,Moore County,35.23568,-79.39135,Pine Hurst/Southern Pines,Y
XIR,Dresden Hbf Rail Station,51.06582,13.74053,Dresden Rail Station,Y
XIU,Erfurt Hbf Rail Station,50.97245,11.0379,Erfurt Rail Station,Y
TCR,Tuticorin,8.72319,78.02633,Tuticorin,Y
JDO,O. Bezerra de Menezes,-7.21846,-39.27117,Juazeiro do Norte,Y
RGS,Burgos,42.3575,-3.62082,Burgos,Y
CAB,Cabinda,-5.59712,12.18798,Cabinda,Y
CBT,Catumbela,-12.48132,13.48685,Catumbela,Y
DUE,Dundo,-7.40046,20.8187,Dundo,Y
MSZ,Yuri Gagarin,-15.2614,12.14705,Namibe,Y
NOV,Albano Machado,-12.80907,15.76061,Huambo,Y
SPP,Menongue,-14.65841,17.72121,Menongue,Y
SZA,Soyo,-6.14094,12.37223,Soyo,Y
VPE,Ondjiva,-17.04368,15.68454,Ondjiva,Y
CFK,Aboubakr Belkaid,36.21277,1.33166,Chlef,Y
GJR,Gjogur,65.99527,-21.32694,Gjogur,Y
BEH,Southwest Michigan Regional,42.13333,-86.43333,Benton Harbor,Y
BHB,Hancock County,44.44666,-68.36121,Bar Harbor,Y
ODW,A. J. Eisenberg,48.25148,-122.67376,Oak Harbor,Y
OLH,Old Harbor Sea Plane Base,57.20474,-153.29907,Old Harbor,Y
PEC,Pelican,57.9576,-136.23045,Pelican,Y
QUL,Ulm Rail Station,48.39957,9.98326,Ulm Rail Station,Y
YAJ,Lyall Harbour,48.7979,-123.20133,Lyall Harbour,Y
YFX,Fox Harbour,52.37292,-55.6738,Fox Harbour,Y
YMF,Montagne Harbor,48.81662,-123.20635,Montagne Harbor,Y
YPT,Pender Harbor,49.62274,-124.02547,Pender Harbor,Y
ZEU,Goettingen Rail Station,51.53661,9.92676,Goettingen Rail Station,Y
DUI,Duisburg Hbf Rail Station,51.42992,6.77362,Duisburg Hbf Rail Station,Y
MTH,The Florida Keys,24.72571,-81.05274,Marathon,Y
OTK,Tillamook,42.41804,-123.81416,Tillamook,Y
RMY,Mariposa-Yosemite,37.51083,-120.03944,Mariposa,Y
BER,Berlin Brandenburg Apt,52.36666,13.50333,Berlin,Y
BER,Berlin Brandenburg Apt,52.36666,13.50333,Berlin,Y
QPP,Berlin HBF Rail Station,52.52493,13.36921,Berlin,Y
SWQ,Brangbiji,-8.48803,117.41138,Sumbawa,Y
CWX,Cochise County,32.24527,-109.89444,Willcox,Y
EKA,Murray Field,40.8,-124.11666,Arcata/Eureka,Y
ESD,Orcas Island,48.70737,-122.91057,Eastsound,Y
CAJ,Canaima,6.23442,-62.85525,Canaima,Y
VCS,Coong Airport,8.73195,106.63247,Con Dao,Y
QYG,German Rail Zone G,54,13,German Rail Zone G,Y
NLT,Nalati,43.43221,83.38221,Xinyuan,Y
IRP,Isiro,2.82844,27.58723,Isiro,Y
MUH,Mersa Matruh,31.33333,27.21666,Mersa Matruh,Y
HBE,Alexandria Borg el Arab,30.91777,29.69638,Alexandria,Y
YHS,Gibsons-Sechelt,49.46666,-123.75,Sechelt,Y
FGU,Fangatau,-15.81987,-140.8857,Fangatau,Y
HHZ,Hikueru,-17.54787,-142.61321,Hikueru,Y
NUK,Nukutavake,-19.28485,-138.7696,Nukutavake,Y
PUK,Pukarua,-18.29611,-137.01583,Pukarua,Y
REA,Reao,-18.46611,-136.43944,Reao,Y
RKA,Aratika-Nord,-15.48507,-145.46752,Aratika,Y
TJN,Takume,-15.85529,-142.2683,Takume,Y
PHT,Henry County,36.33333,-88.38333,Paris,Y
PRX,Cox Field,33.63333,-95.45,Paris,Y
XCR,Paris Chalons-Vatry Airport,48.77332,4.20611,Paris,Y
ORY,Paris Orly Apt,48.72332,2.37943,Paris,Y
